$GPGGA,131300.260,5218.307,N,01220.918,E,1,12,1.0,0.0,M,0.0,M,,*61
$GPGSA,A,3,01,02,03,04,05,06,07,08,09,10,11,12,1.0,1.0,1.0*30
$GPRMC,131300.260,A,5218.307,N,01220.918,E,038.8,094.5,120718,000.0,W*73
$GPGGA,131301.260,5218.306,N,01220.935,E,1,12,1.0,0.0,M,0.0,M,,*6E
$GPGSA,A,3,01,02,03,04,05,06,07,08,09,10,11,12,1.0,1.0,1.0*30
$GPRMC,131301.260,A,5218.306,N,01220.935,E,038.8,094.5,120718,000.0,W*7C
$GPGGA,131302.260,5218.304,N,01220.953,E,1,12,1.0,0.0,M,0.0,M,,*6F
$GPGSA,A,3,01,02,03,04,05,06,07,08,09,10,11,12,1.0,1.0,1.0*30
$GPRMC,131302.260,A,5218.304,N,01220.953,E,038.8,094.5,120718,000.0,W*7D
$GPGGA,131303.260,5218.303,N,01220.970,E,1,12,1.0,0.0,M,0.0,M,,*68
$GPGSA,A,3,01,02,03,04,05,06,07,08,09,10,11,12,1.0,1.0,1.0*30
$GPRMC,131303.260,A,5218.303,N,01220.970,E,038.8,094.5,120718,000.0,W*7A
$GPGGA,131304.260,5218.302,N,01220.988,E,1,12,1.0,0.0,M,0.0,M,,*69
$GPGSA,A,3,01,02,03,04,05,06,07,08,09,10,11,12,1.0,1.0,1.0*30
$GPRMC,131304.260,A,5218.302,N,01220.988,E,038.8,094.5,120718,000.0,W*7B
$GPGGA,131305.260,5218.300,N,01221.005,E,1,12,1.0,0.0,M,0.0,M,,*67
$GPGSA,A,3,01,02,03,04,05,06,07,08,09,10,11,12,1.0,1.0,1.0*30
$GPRMC,131305.260,A,5218.300,N,01221.005,E,038.8,094.5,120718,000.0,W*75
$GPGGA,131306.260,5218.299,N,01221.023,E,1,12,1.0,0.0,M,0.0,M,,*61
$GPGSA,A,3,01,02,03,04,05,06,07,08,09,10,11,12,1.0,1.0,1.0*30
$GPRMC,131306.260,A,5218.299,N,01221.023,E,038.8,094.5,120718,000.0,W*73
$GPGGA,131307.260,5218.298,N,01221.040,E,1,12,1.0,0.0,M,0.0,M,,*64
$GPGSA,A,3,01,02,03,04,05,06,07,08,09,10,11,12,1.0,1.0,1.0*30
$GPRMC,131307.260,A,5218.298,N,01221.040,E,038.8,094.5,120718,000.0,W*76
$GPGGA,131308.260,5218.296,N,01221.058,E,1,12,1.0,0.0,M,0.0,M,,*6C
$GPGSA,A,3,01,02,03,04,05,06,07,08,09,10,11,12,1.0,1.0,1.0*30
$GPRMC,131308.260,A,5218.296,N,01221.058,E,038.8,094.5,120718,000.0,W*7E
$GPGGA,131309.260,5218.295,N,01221.075,E,1,12,1.0,0.0,M,0.0,M,,*61
$GPGSA,A,3,01,02,03,04,05,06,07,08,09,10,11,12,1.0,1.0,1.0*30
$GPRMC,131309.260,A,5218.295,N,01221.075,E,038.8,094.5,120718,000.0,W*73
$GPGGA,131310.260,5218.293,N,01221.093,E,1,12,1.0,0.0,M,0.0,M,,*67
$GPGSA,A,3,01,02,03,04,05,06,07,08,09,10,11,12,1.0,1.0,1.0*30
$GPRMC,131310.260,A,5218.293,N,01221.093,E,038.8,094.5,120718,000.0,W*75
$GPGGA,131311.260,5218.292,N,01221.110,E,1,12,1.0,0.0,M,0.0,M,,*6D
$GPGSA,A,3,01,02,03,04,05,06,07,08,09,10,11,12,1.0,1.0,1.0*30
$GPRMC,131311.260,A,5218.292,N,01221.110,E,038.8,094.5,120718,000.0,W*7F
$GPGGA,131312.260,5218.291,N,01221.128,E,1,12,1.0,0.0,M,0.0,M,,*66
$GPGSA,A,3,01,02,03,04,05,06,07,08,09,10,11,12,1.0,1.0,1.0*30
$GPRMC,131312.260,A,5218.291,N,01221.128,E,038.8,094.5,120718,000.0,W*74
$GPGGA,131313.260,5218.289,N,01221.145,E,1,12,1.0,0.0,M,0.0,M,,*65
$GPGSA,A,3,01,02,03,04,05,06,07,08,09,10,11,12,1.0,1.0,1.0*30
$GPRMC,131313.260,A,5218.289,N,01221.145,E,038.8,094.5,120718,000.0,W*77
$GPGGA,131314.260,5218.288,N,01221.163,E,1,12,1.0,0.0,M,0.0,M,,*67
$GPGSA,A,3,01,02,03,04,05,06,07,08,09,10,11,12,1.0,1.0,1.0*30
$GPRMC,131314.260,A,5218.288,N,01221.163,E,038.8,094.5,120718,000.0,W*75
$GPGGA,131315.260,5218.287,N,01221.180,E,1,12,1.0,0.0,M,0.0,M,,*64
$GPGSA,A,3,01,02,03,04,05,06,07,08,09,10,11,12,1.0,1.0,1.0*30
$GPRMC,131315.260,A,5218.287,N,01221.180,E,038.8,094.5,120718,000.0,W*76
$GPGGA,131316.260,5218.285,N,01221.198,E,1,12,1.0,0.0,M,0.0,M,,*6C
$GPGSA,A,3,01,02,03,04,05,06,07,08,09,10,11,12,1.0,1.0,1.0*30
$GPRMC,131316.260,A,5218.285,N,01221.198,E,038.8,094.5,120718,000.0,W*7E
$GPGGA,131317.260,5218.284,N,01221.215,E,1,12,1.0,0.0,M,0.0,M,,*6A
$GPGSA,A,3,01,02,03,04,05,06,07,08,09,10,11,12,1.0,1.0,1.0*30
$GPRMC,131317.260,A,5218.284,N,01221.215,E,038.8,094.5,120718,000.0,W*78
$GPGGA,131318.260,5218.283,N,01221.232,E,1,12,1.0,0.0,M,0.0,M,,*67
$GPGSA,A,3,01,02,03,04,05,06,07,08,09,10,11,12,1.0,1.0,1.0*30
$GPRMC,131318.260,A,5218.283,N,01221.232,E,038.8,094.5,120718,000.0,W*75
$GPGGA,131319.260,5218.281,N,01221.250,E,1,12,1.0,0.0,M,0.0,M,,*60
$GPGSA,A,3,01,02,03,04,05,06,07,08,09,10,11,12,1.0,1.0,1.0*30
$GPRMC,131319.260,A,5218.281,N,01221.250,E,038.8,094.5,120718,000.0,W*72
$GPGGA,131320.260,5218.280,N,01221.267,E,1,12,1.0,0.0,M,0.0,M,,*6F
$GPGSA,A,3,01,02,03,04,05,06,07,08,09,10,11,12,1.0,1.0,1.0*30
$GPRMC,131320.260,A,5218.280,N,01221.267,E,038.8,094.5,120718,000.0,W*7D
$GPGGA,131321.260,5218.278,N,01221.285,E,1,12,1.0,0.0,M,0.0,M,,*65
$GPGSA,A,3,01,02,03,04,05,06,07,08,09,10,11,12,1.0,1.0,1.0*30
$GPRMC,131321.260,A,5218.278,N,01221.285,E,038.8,094.5,120718,000.0,W*77
$GPGGA,131322.260,5218.277,N,01221.302,E,1,12,1.0,0.0,M,0.0,M,,*67
$GPGSA,A,3,01,02,03,04,05,06,07,08,09,10,11,12,1.0,1.0,1.0*30
$GPRMC,131322.260,A,5218.277,N,01221.302,E,038.8,094.5,120718,000.0,W*75
$GPGGA,131323.260,5218.276,N,01221.320,E,1,12,1.0,0.0,M,0.0,M,,*67
$GPGSA,A,3,01,02,03,04,05,06,07,08,09,10,11,12,1.0,1.0,1.0*30
$GPRMC,131323.260,A,5218.276,N,01221.320,E,038.8,094.5,120718,000.0,W*75
$GPGGA,131324.260,5218.274,N,01221.337,E,1,12,1.0,0.0,M,0.0,M,,*64
$GPGSA,A,3,01,02,03,04,05,06,07,08,09,10,11,12,1.0,1.0,1.0*30
$GPRMC,131324.260,A,5218.274,N,01221.337,E,038.8,094.5,120718,000.0,W*76
$GPGGA,131325.260,5218.273,N,01221.355,E,1,12,1.0,0.0,M,0.0,M,,*66
$GPGSA,A,3,01,02,03,04,05,06,07,08,09,10,11,12,1.0,1.0,1.0*30
$GPRMC,131325.260,A,5218.273,N,01221.355,E,038.8,094.5,120718,000.0,W*74
$GPGGA,131326.260,5218.272,N,01221.372,E,1,12,1.0,0.0,M,0.0,M,,*61
$GPGSA,A,3,01,02,03,04,05,06,07,08,09,10,11,12,1.0,1.0,1.0*30
$GPRMC,131326.260,A,5218.272,N,01221.372,E,038.8,094.5,120718,000.0,W*73
$GPGGA,131327.260,5218.270,N,01221.390,E,1,12,1.0,0.0,M,0.0,M,,*6E
$GPGSA,A,3,01,02,03,04,05,06,07,08,09,10,11,12,1.0,1.0,1.0*30
$GPRMC,131327.260,A,5218.270,N,01221.390,E,038.8,094.5,120718,000.0,W*7C
$GPGGA,131328.260,5218.269,N,01221.407,E,1,12,1.0,0.0,M,0.0,M,,*60
$GPGSA,A,3,01,02,03,04,05,06,07,08,09,10,11,12,1.0,1.0,1.0*30
$GPRMC,131328.260,A,5218.269,N,01221.407,E,038.8,094.5,120718,000.0,W*72
$GPGGA,131329.260,5218.267,N,01221.425,E,1,12,1.0,0.0,M,0.0,M,,*6F
$GPGSA,A,3,01,02,03,04,05,06,07,08,09,10,11,12,1.0,1.0,1.0*30
$GPRMC,131329.260,A,5218.267,N,01221.425,E,038.8,094.5,120718,000.0,W*7D
$GPGGA,131330.260,5218.266,N,01221.442,E,1,12,1.0,0.0,M,0.0,M,,*67
$GPGSA,A,3,01,02,03,04,05,06,07,08,09,10,11,12,1.0,1.0,1.0*30
$GPRMC,131330.260,A,5218.266,N,01221.442,E,038.8,094.5,120718,000.0,W*75
$GPGGA,131331.260,5218.265,N,01221.460,E,1,12,1.0,0.0,M,0.0,M,,*65
$GPGSA,A,3,01,02,03,04,05,06,07,08,09,10,11,12,1.0,1.0,1.0*30
$GPRMC,131331.260,A,5218.265,N,01221.460,E,038.8,094.5,120718,000.0,W*77
$GPGGA,131332.260,5218.263,N,01221.477,E,1,12,1.0,0.0,M,0.0,M,,*66
$GPGSA,A,3,01,02,03,04,05,06,07,08,09,10,11,12,1.0,1.0,1.0*30
$GPRMC,131332.260,A,5218.263,N,01221.477,E,038.8,094.5,120718,000.0,W*74
$GPGGA,131333.260,5218.262,N,01221.495,E,1,12,1.0,0.0,M,0.0,M,,*6A
$GPGSA,A,3,01,02,03,04,05,06,07,08,09,10,11,12,1.0,1.0,1.0*30
$GPRMC,131333.260,A,5218.262,N,01221.495,E,038.8,094.5,120718,000.0,W*78
$GPGGA,131334.260,5218.261,N,01221.512,E,1,12,1.0,0.0,M,0.0,M,,*60
$GPGSA,A,3,01,02,03,04,05,06,07,08,09,10,11,12,1.0,1.0,1.0*30
$GPRMC,131334.260,A,5218.261,N,01221.512,E,038.8,094.5,120718,000.0,W*72
$GPGGA,131335.260,5218.259,N,01221.530,E,1,12,1.0,0.0,M,0.0,M,,*6A
$GPGSA,A,3,01,02,03,04,05,06,07,08,09,10,11,12,1.0,1.0,1.0*30
$GPRMC,131335.260,A,5218.259,N,01221.530,E,038.8,094.5,120718,000.0,W*78
$GPGGA,131336.260,5218.258,N,01221.547,E,1,12,1.0,0.0,M,0.0,M,,*68
$GPGSA,A,3,01,02,03,04,05,06,07,08,09,10,11,12,1.0,1.0,1.0*30
$GPRMC,131336.260,A,5218.258,N,01221.547,E,038.8,094.5,120718,000.0,W*7A
$GPGGA,131337.260,5218.256,N,01221.564,E,1,12,1.0,0.0,M,0.0,M,,*66
$GPGSA,A,3,01,02,03,04,05,06,07,08,09,10,11,12,1.0,1.0,1.0*30
$GPRMC,131337.260,A,5218.256,N,01221.564,E,038.8,094.5,120718,000.0,W*74
$GPGGA,131338.260,5218.255,N,01221.582,E,1,12,1.0,0.0,M,0.0,M,,*62
$GPGSA,A,3,01,02,03,04,05,06,07,08,09,10,11,12,1.0,1.0,1.0*30
$GPRMC,131338.260,A,5218.255,N,01221.582,E,038.8,094.5,120718,000.0,W*70
$GPGGA,131339.260,5218.254,N,01221.599,E,1,12,1.0,0.0,M,0.0,M,,*68
$GPGSA,A,3,01,02,03,04,05,06,07,08,09,10,11,12,1.0,1.0,1.0*30
$GPRMC,131339.260,A,5218.254,N,01221.599,E,038.8,094.5,120718,000.0,W*7A
$GPGGA,131340.260,5218.252,N,01221.617,E,1,12,1.0,0.0,M,0.0,M,,*65
$GPGSA,A,3,01,02,03,04,05,06,07,08,09,10,11,12,1.0,1.0,1.0*30
$GPRMC,131340.260,A,5218.252,N,01221.617,E,038.8,094.5,120718,000.0,W*77
$GPGGA,131341.260,5218.251,N,01221.634,E,1,12,1.0,0.0,M,0.0,M,,*66
$GPGSA,A,3,01,02,03,04,05,06,07,08,09,10,11,12,1.0,1.0,1.0*30
$GPRMC,131341.260,A,5218.251,N,01221.634,E,038.8,094.5,120718,000.0,W*74
$GPGGA,131342.260,5218.250,N,01221.652,E,1,12,1.0,0.0,M,0.0,M,,*64
$GPGSA,A,3,01,02,03,04,05,06,07,08,09,10,11,12,1.0,1.0,1.0*30
$GPRMC,131342.260,A,5218.250,N,01221.652,E,038.8,094.5,120718,000.0,W*76
$GPGGA,131343.260,5218.248,N,01221.669,E,1,12,1.0,0.0,M,0.0,M,,*64
$GPGSA,A,3,01,02,03,04,05,06,07,08,09,10,11,12,1.0,1.0,1.0*30
$GPRMC,131343.260,A,5218.248,N,01221.669,E,038.8,094.5,120718,000.0,W*76
$GPGGA,131344.260,5218.247,N,01221.687,E,1,12,1.0,0.0,M,0.0,M,,*6C
$GPGSA,A,3,01,02,03,04,05,06,07,08,09,10,11,12,1.0,1.0,1.0*30
$GPRMC,131344.260,A,5218.247,N,01221.687,E,038.8,094.5,120718,000.0,W*7E
$GPGGA,131345.260,5218.245,N,01221.704,E,1,12,1.0,0.0,M,0.0,M,,*65
$GPGSA,A,3,01,02,03,04,05,06,07,08,09,10,11,12,1.0,1.0,1.0*30
$GPRMC,131345.260,A,5218.245,N,01221.704,E,038.8,094.5,120718,000.0,W*77
$GPGGA,131346.260,5218.244,N,01221.722,E,1,12,1.0,0.0,M,0.0,M,,*63
$GPGSA,A,3,01,02,03,04,05,06,07,08,09,10,11,12,1.0,1.0,1.0*30
$GPRMC,131346.260,A,5218.244,N,01221.722,E,038.8,094.5,120718,000.0,W*71
$GPGGA,131347.260,5218.243,N,01221.739,E,1,12,1.0,0.0,M,0.0,M,,*6F
$GPGSA,A,3,01,02,03,04,05,06,07,08,09,10,11,12,1.0,1.0,1.0*30
$GPRMC,131347.260,A,5218.243,N,01221.739,E,038.8,094.5,120718,000.0,W*7D
$GPGGA,131348.260,5218.241,N,01221.757,E,1,12,1.0,0.0,M,0.0,M,,*6A
$GPGSA,A,3,01,02,03,04,05,06,07,08,09,10,11,12,1.0,1.0,1.0*30
$GPRMC,131348.260,A,5218.241,N,01221.757,E,038.8,094.5,120718,000.0,W*78
$GPGGA,131349.260,5218.240,N,01221.774,E,1,12,1.0,0.0,M,0.0,M,,*6B
$GPGSA,A,3,01,02,03,04,05,06,07,08,09,10,11,12,1.0,1.0,1.0*30
$GPRMC,131349.260,A,5218.240,N,01221.774,E,038.8,094.5,120718,000.0,W*79
$GPGGA,131350.260,5218.239,N,01221.792,E,1,12,1.0,0.0,M,0.0,M,,*65
$GPGSA,A,3,01,02,03,04,05,06,07,08,09,10,11,12,1.0,1.0,1.0*30
$GPRMC,131350.260,A,5218.239,N,01221.792,E,038.8,094.5,120718,000.0,W*77
$GPGGA,131351.260,5218.237,N,01221.809,E,1,12,1.0,0.0,M,0.0,M,,*67
$GPGSA,A,3,01,02,03,04,05,06,07,08,09,10,11,12,1.0,1.0,1.0*30
$GPRMC,131351.260,A,5218.237,N,01221.809,E,038.8,094.5,120718,000.0,W*75
$GPGGA,131352.260,5218.236,N,01221.827,E,1,12,1.0,0.0,M,0.0,M,,*69
$GPGSA,A,3,01,02,03,04,05,06,07,08,09,10,11,12,1.0,1.0,1.0*30
$GPRMC,131352.260,A,5218.236,N,01221.827,E,038.8,094.5,120718,000.0,W*7B
$GPGGA,131353.260,5218.234,N,01221.844,E,1,12,1.0,0.0,M,0.0,M,,*6F
$GPGSA,A,3,01,02,03,04,05,06,07,08,09,10,11,12,1.0,1.0,1.0*30
$GPRMC,131353.260,A,5218.234,N,01221.844,E,038.8,094.5,120718,000.0,W*7D
$GPGGA,131354.260,5218.233,N,01221.862,E,1,12,1.0,0.0,M,0.0,M,,*6B
$GPGSA,A,3,01,02,03,04,05,06,07,08,09,10,11,12,1.0,1.0,1.0*30
$GPRMC,131354.260,A,5218.233,N,01221.862,E,038.8,094.5,120718,000.0,W*79
$GPGGA,131355.260,5218.232,N,01221.879,E,1,12,1.0,0.0,M,0.0,M,,*61
$GPGSA,A,3,01,02,03,04,05,06,07,08,09,10,11,12,1.0,1.0,1.0*30
$GPRMC,131355.260,A,5218.232,N,01221.879,E,038.8,094.5,120718,000.0,W*73
$GPGGA,131356.260,5218.230,N,01221.896,E,1,12,1.0,0.0,M,0.0,M,,*61
$GPGSA,A,3,01,02,03,04,05,06,07,08,09,10,11,12,1.0,1.0,1.0*30
$GPRMC,131356.260,A,5218.230,N,01221.896,E,038.8,094.5,120718,000.0,W*73
$GPGGA,131357.260,5218.229,N,01221.914,E,1,12,1.0,0.0,M,0.0,M,,*63
$GPGSA,A,3,01,02,03,04,05,06,07,08,09,10,11,12,1.0,1.0,1.0*30
$GPRMC,131357.260,A,5218.229,N,01221.914,E,038.8,094.5,120718,000.0,W*71
$GPGGA,131358.260,5218.228,N,01221.931,E,1,12,1.0,0.0,M,0.0,M,,*6A
$GPGSA,A,3,01,02,03,04,05,06,07,08,09,10,11,12,1.0,1.0,1.0*30
$GPRMC,131358.260,A,5218.228,N,01221.931,E,038.8,094.5,120718,000.0,W*78
$GPGGA,131359.260,5218.226,N,01221.949,E,1,12,1.0,0.0,M,0.0,M,,*6A
$GPGSA,A,3,01,02,03,04,05,06,07,08,09,10,11,12,1.0,1.0,1.0*30
$GPRMC,131359.260,A,5218.226,N,01221.949,E,038.8,094.5,120718,000.0,W*78
$GPGGA,131400.260,5218.225,N,01221.966,E,1,12,1.0,0.0,M,0.0,M,,*6F
$GPGSA,A,3,01,02,03,04,05,06,07,08,09,10,11,12,1.0,1.0,1.0*30
$GPRMC,131400.260,A,5218.225,N,01221.966,E,038.8,094.5,120718,000.0,W*7D
$GPGGA,131401.260,5218.224,N,01221.984,E,1,12,1.0,0.0,M,0.0,M,,*63
$GPGSA,A,3,01,02,03,04,05,06,07,08,09,10,11,12,1.0,1.0,1.0*30
$GPRMC,131401.260,A,5218.224,N,01221.984,E,038.8,094.5,120718,000.0,W*71
$GPGGA,131402.260,5218.222,N,01222.001,E,1,12,1.0,0.0,M,0.0,M,,*61
$GPGSA,A,3,01,02,03,04,05,06,07,08,09,10,11,12,1.0,1.0,1.0*30
$GPRMC,131402.260,A,5218.222,N,01222.001,E,038.8,094.5,120718,000.0,W*73
$GPGGA,131403.260,5218.221,N,01222.019,E,1,12,1.0,0.0,M,0.0,M,,*6A
$GPGSA,A,3,01,02,03,04,05,06,07,08,09,10,11,12,1.0,1.0,1.0*30
$GPRMC,131403.260,A,5218.221,N,01222.019,E,038.8,094.5,120718,000.0,W*78
$GPGGA,131404.260,5218.219,N,01222.036,E,1,12,1.0,0.0,M,0.0,M,,*6B
$GPGSA,A,3,01,02,03,04,05,06,07,08,09,10,11,12,1.0,1.0,1.0*30
$GPRMC,131404.260,A,5218.219,N,01222.036,E,038.8,094.5,120718,000.0,W*79
$GPGGA,131405.260,5218.218,N,01222.054,E,1,12,1.0,0.0,M,0.0,M,,*6F
$GPGSA,A,3,01,02,03,04,05,06,07,08,09,10,11,12,1.0,1.0,1.0*30
$GPRMC,131405.260,A,5218.218,N,01222.054,E,038.8,094.5,120718,000.0,W*7D
$GPGGA,131406.260,5218.217,N,01222.071,E,1,12,1.0,0.0,M,0.0,M,,*64
$GPGSA,A,3,01,02,03,04,05,06,07,08,09,10,11,12,1.0,1.0,1.0*30
$GPRMC,131406.260,A,5218.217,N,01222.071,E,038.8,094.5,120718,000.0,W*76
$GPGGA,131407.260,5218.215,N,01222.089,E,1,12,1.0,0.0,M,0.0,M,,*60
$GPGSA,A,3,01,02,03,04,05,06,07,08,09,10,11,12,1.0,1.0,1.0*30
$GPRMC,131407.260,A,5218.215,N,01222.089,E,038.8,094.5,120718,000.0,W*72
$GPGGA,131408.260,5218.214,N,01222.106,E,1,12,1.0,0.0,M,0.0,M,,*68
$GPGSA,A,3,01,02,03,04,05,06,07,08,09,10,11,12,1.0,1.0,1.0*30
$GPRMC,131408.260,A,5218.214,N,01222.106,E,038.8,094.5,120718,000.0,W*7A
$GPGGA,131409.260,5218.213,N,01222.124,E,1,12,1.0,0.0,M,0.0,M,,*6E
$GPGSA,A,3,01,02,03,04,05,06,07,08,09,10,11,12,1.0,1.0,1.0*30
$GPRMC,131409.260,A,5218.213,N,01222.124,E,038.8,094.5,120718,000.0,W*7C
$GPGGA,131410.260,5218.211,N,01222.141,E,1,12,1.0,0.0,M,0.0,M,,*67
$GPGSA,A,3,01,02,03,04,05,06,07,08,09,10,11,12,1.0,1.0,1.0*30
$GPRMC,131410.260,A,5218.211,N,01222.141,E,038.8,094.5,120718,000.0,W*75
$GPGGA,131411.260,5218.210,N,01222.159,E,1,12,1.0,0.0,M,0.0,M,,*6E
$GPGSA,A,3,01,02,03,04,05,06,07,08,09,10,11,12,1.0,1.0,1.0*30
$GPRMC,131411.260,A,5218.210,N,01222.159,E,038.8,094.5,120718,000.0,W*7C
$GPGGA,131412.260,5218.208,N,01222.176,E,1,12,1.0,0.0,M,0.0,M,,*69
$GPGSA,A,3,01,02,03,04,05,06,07,08,09,10,11,12,1.0,1.0,1.0*30
$GPRMC,131412.260,A,5218.208,N,01222.176,E,038.8,094.5,120718,000.0,W*7B
$GPGGA,131413.260,5218.207,N,01222.194,E,1,12,1.0,0.0,M,0.0,M,,*6B
$GPGSA,A,3,01,02,03,04,05,06,07,08,09,10,11,12,1.0,1.0,1.0*30
$GPRMC,131413.260,A,5218.207,N,01222.194,E,038.8,094.5,120718,000.0,W*79
$GPGGA,131414.260,5218.206,N,01222.211,E,1,12,1.0,0.0,M,0.0,M,,*63
$GPGSA,A,3,01,02,03,04,05,06,07,08,09,10,11,12,1.0,1.0,1.0*30
$GPRMC,131414.260,A,5218.206,N,01222.211,E,038.8,094.5,120718,000.0,W*71
$GPGGA,131415.260,5218.204,N,01222.228,E,1,12,1.0,0.0,M,0.0,M,,*6A
$GPGSA,A,3,01,02,03,04,05,06,07,08,09,10,11,12,1.0,1.0,1.0*30
$GPRMC,131415.260,A,5218.204,N,01222.228,E,038.8,094.5,120718,000.0,W*78
$GPGGA,131416.260,5218.203,N,01222.246,E,1,12,1.0,0.0,M,0.0,M,,*66
$GPGSA,A,3,01,02,03,04,05,06,07,08,09,10,11,12,1.0,1.0,1.0*30
$GPRMC,131416.260,A,5218.203,N,01222.246,E,038.8,094.5,120718,000.0,W*74
$GPGGA,131417.260,5218.202,N,01222.263,E,1,12,1.0,0.0,M,0.0,M,,*61
$GPGSA,A,3,01,02,03,04,05,06,07,08,09,10,11,12,1.0,1.0,1.0*30
$GPRMC,131417.260,A,5218.202,N,01222.263,E,038.8,094.5,120718,000.0,W*73
$GPGGA,131418.260,5218.200,N,01222.281,E,1,12,1.0,0.0,M,0.0,M,,*60
$GPGSA,A,3,01,02,03,04,05,06,07,08,09,10,11,12,1.0,1.0,1.0*30
$GPRMC,131418.260,A,5218.200,N,01222.281,E,038.8,094.5,120718,000.0,W*72
$GPGGA,131419.260,5218.199,N,01222.298,E,1,12,1.0,0.0,M,0.0,M,,*6A
$GPGSA,A,3,01,02,03,04,05,06,07,08,09,10,11,12,1.0,1.0,1.0*30
$GPRMC,131419.260,A,5218.199,N,01222.298,E,038.8,094.5,120718,000.0,W*78
$GPGGA,131420.260,5218.197,N,01222.316,E,1,12,1.0,0.0,M,0.0,M,,*69
$GPGSA,A,3,01,02,03,04,05,06,07,08,09,10,11,12,1.0,1.0,1.0*30
$GPRMC,131420.260,A,5218.197,N,01222.316,E,038.8,094.5,120718,000.0,W*7B
$GPGGA,131421.260,5218.196,N,01222.333,E,1,12,1.0,0.0,M,0.0,M,,*6E
$GPGSA,A,3,01,02,03,04,05,06,07,08,09,10,11,12,1.0,1.0,1.0*30
$GPRMC,131421.260,A,5218.196,N,01222.333,E,038.8,094.5,120718,000.0,W*7C
$GPGGA,131422.260,5218.195,N,01222.351,E,1,12,1.0,0.0,M,0.0,M,,*6A
$GPGSA,A,3,01,02,03,04,05,06,07,08,09,10,11,12,1.0,1.0,1.0*30
$GPRMC,131422.260,A,5218.195,N,01222.351,E,038.8,094.5,120718,000.0,W*78
$GPGGA,131423.260,5218.193,N,01222.368,E,1,12,1.0,0.0,M,0.0,M,,*67
$GPGSA,A,3,01,02,03,04,05,06,07,08,09,10,11,12,1.0,1.0,1.0*30
$GPRMC,131423.260,A,5218.193,N,01222.368,E,038.8,094.5,120718,000.0,W*75
$GPGGA,131424.260,5218.192,N,01222.386,E,1,12,1.0,0.0,M,0.0,M,,*61
$GPGSA,A,3,01,02,03,04,05,06,07,08,09,10,11,12,1.0,1.0,1.0*30
$GPRMC,131424.260,A,5218.192,N,01222.386,E,038.8,094.5,120718,000.0,W*73
$GPGGA,131425.260,5218.191,N,01222.403,E,1,12,1.0,0.0,M,0.0,M,,*69
$GPGSA,A,3,01,02,03,04,05,06,07,08,09,10,11,12,1.0,1.0,1.0*30
$GPRMC,131425.260,A,5218.191,N,01222.403,E,038.8,094.5,120718,000.0,W*7B
$GPGGA,131426.260,5218.189,N,01222.421,E,1,12,1.0,0.0,M,0.0,M,,*63
$GPGSA,A,3,01,02,03,04,05,06,07,08,09,10,11,12,1.0,1.0,1.0*30
$GPRMC,131426.260,A,5218.189,N,01222.421,E,038.8,094.5,120718,000.0,W*71
$GPGGA,131427.260,5218.188,N,01222.438,E,1,12,1.0,0.0,M,0.0,M,,*6B
$GPGSA,A,3,01,02,03,04,05,06,07,08,09,10,11,12,1.0,1.0,1.0*30
$GPRMC,131427.260,A,5218.188,N,01222.438,E,038.8,094.5,120718,000.0,W*79
$GPGGA,131428.260,5218.186,N,01222.456,E,1,12,1.0,0.0,M,0.0,M,,*62
$GPGSA,A,3,01,02,03,04,05,06,07,08,09,10,11,12,1.0,1.0,1.0*30
$GPRMC,131428.260,A,5218.186,N,01222.456,E,038.8,094.5,120718,000.0,W*70
$GPGGA,131429.260,5218.185,N,01222.473,E,1,12,1.0,0.0,M,0.0,M,,*67
$GPGSA,A,3,01,02,03,04,05,06,07,08,09,10,11,12,1.0,1.0,1.0*30
$GPRMC,131429.260,A,5218.185,N,01222.473,E,038.8,094.5,120718,000.0,W*75
$GPGGA,131430.260,5218.184,N,01222.491,E,1,12,1.0,0.0,M,0.0,M,,*62
$GPGSA,A,3,01,02,03,04,05,06,07,08,09,10,11,12,1.0,1.0,1.0*30
$GPRMC,131430.260,A,5218.184,N,01222.491,E,038.8,094.5,120718,000.0,W*70
$GPGGA,131431.260,5218.182,N,01222.508,E,1,12,1.0,0.0,M,0.0,M,,*64
$GPGSA,A,3,01,02,03,04,05,06,07,08,09,10,11,12,1.0,1.0,1.0*30
$GPRMC,131431.260,A,5218.182,N,01222.508,E,038.8,094.5,120718,000.0,W*76
$GPGGA,131432.260,5218.181,N,01222.525,E,1,12,1.0,0.0,M,0.0,M,,*6B
$GPGSA,A,3,01,02,03,04,05,06,07,08,09,10,11,12,1.0,1.0,1.0*30
$GPRMC,131432.260,A,5218.181,N,01222.525,E,038.8,094.5,120718,000.0,W*79
$GPGGA,131433.260,5218.180,N,01222.543,E,1,12,1.0,0.0,M,0.0,M,,*6B
$GPGSA,A,3,01,02,03,04,05,06,07,08,09,10,11,12,1.0,1.0,1.0*30
$GPRMC,131433.260,A,5218.180,N,01222.543,E,038.8,094.5,120718,000.0,W*79
$GPGGA,131434.260,5218.178,N,01222.560,E,1,12,1.0,0.0,M,0.0,M,,*6A
$GPGSA,A,3,01,02,03,04,05,06,07,08,09,10,11,12,1.0,1.0,1.0*30
$GPRMC,131434.260,A,5218.178,N,01222.560,E,038.8,094.5,120718,000.0,W*78
$GPGGA,131435.260,5218.177,N,01222.578,E,1,12,1.0,0.0,M,0.0,M,,*6D
$GPGSA,A,3,01,02,03,04,05,06,07,08,09,10,11,12,1.0,1.0,1.0*30
$GPRMC,131435.260,A,5218.177,N,01222.578,E,038.8,094.5,120718,000.0,W*7F
$GPGGA,131436.260,5218.176,N,01222.595,E,1,12,1.0,0.0,M,0.0,M,,*6C
$GPGSA,A,3,01,02,03,04,05,06,07,08,09,10,11,12,1.0,1.0,1.0*30
$GPRMC,131436.260,A,5218.176,N,01222.595,E,038.8,094.5,120718,000.0,W*7E
$GPGGA,131437.260,5218.174,N,01222.613,E,1,12,1.0,0.0,M,0.0,M,,*62
$GPGSA,A,3,01,02,03,04,05,06,07,08,09,10,11,12,1.0,1.0,1.0*30
$GPRMC,131437.260,A,5218.174,N,01222.613,E,038.8,094.5,120718,000.0,W*70
$GPGGA,131438.260,5218.173,N,01222.630,E,1,12,1.0,0.0,M,0.0,M,,*6B
$GPGSA,A,3,01,02,03,04,05,06,07,08,09,10,11,12,1.0,1.0,1.0*30
$GPRMC,131438.260,A,5218.173,N,01222.630,E,038.8,094.5,120718,000.0,W*79
$GPGGA,131439.260,5218.171,N,01222.648,E,1,12,1.0,0.0,M,0.0,M,,*67
$GPGSA,A,3,01,02,03,04,05,06,07,08,09,10,11,12,1.0,1.0,1.0*30
$GPRMC,131439.260,A,5218.171,N,01222.648,E,038.8,094.5,120718,000.0,W*75
$GPGGA,131440.260,5218.170,N,01222.665,E,1,12,1.0,0.0,M,0.0,M,,*67
$GPGSA,A,3,01,02,03,04,05,06,07,08,09,10,11,12,1.0,1.0,1.0*30
$GPRMC,131440.260,A,5218.170,N,01222.665,E,038.8,094.5,120718,000.0,W*75
$GPGGA,131441.260,5218.169,N,01222.683,E,1,12,1.0,0.0,M,0.0,M,,*66
$GPGSA,A,3,01,02,03,04,05,06,07,08,09,10,11,12,1.0,1.0,1.0*30
$GPRMC,131441.260,A,5218.169,N,01222.683,E,038.8,094.5,120718,000.0,W*74
$GPGGA,131442.260,5218.167,N,01222.700,E,1,12,1.0,0.0,M,0.0,M,,*61
$GPGSA,A,3,01,02,03,04,05,06,07,08,09,10,11,12,1.0,1.0,1.0*30
$GPRMC,131442.260,A,5218.167,N,01222.700,E,038.8,094.5,120718,000.0,W*73
$GPGGA,131443.260,5218.166,N,01222.718,E,1,12,1.0,0.0,M,0.0,M,,*68
$GPGSA,A,3,01,02,03,04,05,06,07,08,09,10,11,12,1.0,1.0,1.0*30
$GPRMC,131443.260,A,5218.166,N,01222.718,E,038.8,094.5,120718,000.0,W*7A
$GPGGA,131444.260,5218.165,N,01222.735,E,1,12,1.0,0.0,M,0.0,M,,*63
$GPGSA,A,3,01,02,03,04,05,06,07,08,09,10,11,12,1.0,1.0,1.0*30
$GPRMC,131444.260,A,5218.165,N,01222.735,E,038.8,094.5,120718,000.0,W*71
$GPGGA,131445.260,5218.163,N,01222.753,E,1,12,1.0,0.0,M,0.0,M,,*64
$GPGSA,A,3,01,02,03,04,05,06,07,08,09,10,11,12,1.0,1.0,1.0*30
$GPRMC,131445.260,A,5218.163,N,01222.753,E,038.8,094.5,120718,000.0,W*76
$GPGGA,131446.260,5218.162,N,01222.770,E,1,12,1.0,0.0,M,0.0,M,,*67
$GPGSA,A,3,01,02,03,04,05,06,07,08,09,10,11,12,1.0,1.0,1.0*30
$GPRMC,131446.260,A,5218.162,N,01222.770,E,038.8,094.5,120718,000.0,W*75
$GPGGA,131447.260,5218.160,N,01222.788,E,1,12,1.0,0.0,M,0.0,M,,*63
$GPGSA,A,3,01,02,03,04,05,06,07,08,09,10,11,12,1.0,1.0,1.0*30
$GPRMC,131447.260,A,5218.160,N,01222.788,E,038.8,094.5,120718,000.0,W*71
$GPGGA,131448.260,5218.159,N,01222.805,E,1,12,1.0,0.0,M,0.0,M,,*6C
$GPGSA,A,3,01,02,03,04,05,06,07,08,09,10,11,12,1.0,1.0,1.0*30
$GPRMC,131448.260,A,5218.159,N,01222.805,E,038.8,094.5,120718,000.0,W*7E
$GPGGA,131449.260,5218.158,N,01222.823,E,1,12,1.0,0.0,M,0.0,M,,*68
$GPGSA,A,3,01,02,03,04,05,06,07,08,09,10,11,12,1.0,1.0,1.0*30
$GPRMC,131449.260,A,5218.158,N,01222.823,E,038.8,094.5,120718,000.0,W*7A
$GPGGA,131450.260,5218.156,N,01222.840,E,1,12,1.0,0.0,M,0.0,M,,*6B
$GPGSA,A,3,01,02,03,04,05,06,07,08,09,10,11,12,1.0,1.0,1.0*30
$GPRMC,131450.260,A,5218.156,N,01222.840,E,038.8,094.5,120718,000.0,W*79
$GPGGA,131451.260,5218.155,N,01222.857,E,1,12,1.0,0.0,M,0.0,M,,*6F
$GPGSA,A,3,01,02,03,04,05,06,07,08,09,10,11,12,1.0,1.0,1.0*30
$GPRMC,131451.260,A,5218.155,N,01222.857,E,038.8,094.5,120718,000.0,W*7D
$GPGGA,131452.260,5218.154,N,01222.875,E,1,12,1.0,0.0,M,0.0,M,,*6D
$GPGSA,A,3,01,02,03,04,05,06,07,08,09,10,11,12,1.0,1.0,1.0*30
$GPRMC,131452.260,A,5218.154,N,01222.875,E,038.8,094.5,120718,000.0,W*7F
$GPGGA,131453.260,5218.152,N,01222.892,E,1,12,1.0,0.0,M,0.0,M,,*63
$GPGSA,A,3,01,02,03,04,05,06,07,08,09,10,11,12,1.0,1.0,1.0*30
$GPRMC,131453.260,A,5218.152,N,01222.892,E,038.8,094.5,120718,000.0,W*71
$GPGGA,131454.260,5218.151,N,01222.910,E,1,12,1.0,0.0,M,0.0,M,,*6C
$GPGSA,A,3,01,02,03,04,05,06,07,08,09,10,11,12,1.0,1.0,1.0*30
$GPRMC,131454.260,A,5218.151,N,01222.910,E,038.8,094.5,120718,000.0,W*7E
$GPGGA,131455.260,5218.149,N,01222.927,E,1,12,1.0,0.0,M,0.0,M,,*60
$GPGSA,A,3,01,02,03,04,05,06,07,08,09,10,11,12,1.0,1.0,1.0*30
$GPRMC,131455.260,A,5218.149,N,01222.927,E,038.8,094.5,120718,000.0,W*72
$GPGGA,131456.260,5218.148,N,01222.945,E,1,12,1.0,0.0,M,0.0,M,,*66
$GPGSA,A,3,01,02,03,04,05,06,07,08,09,10,11,12,1.0,1.0,1.0*30
$GPRMC,131456.260,A,5218.148,N,01222.945,E,038.8,094.5,120718,000.0,W*74
$GPGGA,131457.260,5218.147,N,01222.962,E,1,12,1.0,0.0,M,0.0,M,,*6D
$GPGSA,A,3,01,02,03,04,05,06,07,08,09,10,11,12,1.0,1.0,1.0*30
$GPRMC,131457.260,A,5218.147,N,01222.962,E,038.8,094.5,120718,000.0,W*7F
$GPGGA,131458.260,5218.145,N,01222.980,E,1,12,1.0,0.0,M,0.0,M,,*6C
$GPGSA,A,3,01,02,03,04,05,06,07,08,09,10,11,12,1.0,1.0,1.0*30
$GPRMC,131458.260,A,5218.145,N,01222.980,E,038.8,094.5,120718,000.0,W*7E
$GPGGA,131459.260,5218.144,N,01222.997,E,1,12,1.0,0.0,M,0.0,M,,*6A
$GPGSA,A,3,01,02,03,04,05,06,07,08,09,10,11,12,1.0,1.0,1.0*30
$GPRMC,131459.260,A,5218.144,N,01222.997,E,038.8,094.5,120718,000.0,W*78
$GPGGA,131500.260,5218.143,N,01223.015,E,1,12,1.0,0.0,M,0.0,M,,*62
$GPGSA,A,3,01,02,03,04,05,06,07,08,09,10,11,12,1.0,1.0,1.0*30
$GPRMC,131500.260,A,5218.143,N,01223.015,E,038.8,094.5,120718,000.0,W*70
$GPGGA,131501.260,5218.141,N,01223.032,E,1,12,1.0,0.0,M,0.0,M,,*64
$GPGSA,A,3,01,02,03,04,05,06,07,08,09,10,11,12,1.0,1.0,1.0*30
$GPRMC,131501.260,A,5218.141,N,01223.032,E,038.8,094.5,120718,000.0,W*76
$GPGGA,131502.260,5218.140,N,01223.050,E,1,12,1.0,0.0,M,0.0,M,,*62
$GPGSA,A,3,01,02,03,04,05,06,07,08,09,10,11,12,1.0,1.0,1.0*30
$GPRMC,131502.260,A,5218.140,N,01223.050,E,038.8,094.5,120718,000.0,W*70
$GPGGA,131503.260,5218.138,N,01223.067,E,1,12,1.0,0.0,M,0.0,M,,*68
$GPGSA,A,3,01,02,03,04,05,06,07,08,09,10,11,12,1.0,1.0,1.0*30
$GPRMC,131503.260,A,5218.138,N,01223.067,E,038.8,094.5,120718,000.0,W*7A
$GPGGA,131504.260,5218.137,N,01223.085,E,1,12,1.0,0.0,M,0.0,M,,*6C
$GPGSA,A,3,01,02,03,04,05,06,07,08,09,10,11,12,1.0,1.0,1.0*30
$GPRMC,131504.260,A,5218.137,N,01223.085,E,038.8,094.5,120718,000.0,W*7E
$GPGGA,131505.260,5218.136,N,01223.102,E,1,12,1.0,0.0,M,0.0,M,,*62
$GPGSA,A,3,01,02,03,04,05,06,07,08,09,10,11,12,1.0,1.0,1.0*30
$GPRMC,131505.260,A,5218.136,N,01223.102,E,038.8,094.5,120718,000.0,W*70
$GPGGA,131506.260,5218.134,N,01223.120,E,1,12,1.0,0.0,M,0.0,M,,*63
$GPGSA,A,3,01,02,03,04,05,06,07,08,09,10,11,12,1.0,1.0,1.0*30
$GPRMC,131506.260,A,5218.134,N,01223.120,E,038.8,094.5,120718,000.0,W*71
$GPGGA,131507.260,5218.133,N,01223.137,E,1,12,1.0,0.0,M,0.0,M,,*63
$GPGSA,A,3,01,02,03,04,05,06,07,08,09,10,11,12,1.0,1.0,1.0*30
$GPRMC,131507.260,A,5218.133,N,01223.137,E,038.8,094.5,120718,000.0,W*71
$GPGGA,131508.260,5218.132,N,01223.155,E,1,12,1.0,0.0,M,0.0,M,,*69
$GPGSA,A,3,01,02,03,04,05,06,07,08,09,10,11,12,1.0,1.0,1.0*30
$GPRMC,131508.260,A,5218.132,N,01223.155,E,038.8,094.5,120718,000.0,W*7B
$GPGGA,131509.260,5218.130,N,01223.172,E,1,12,1.0,0.0,M,0.0,M,,*6F
$GPGSA,A,3,01,02,03,04,05,06,07,08,09,10,11,12,1.0,1.0,1.0*30
$GPRMC,131509.260,A,5218.130,N,01223.172,E,038.8,094.5,120718,000.0,W*7D
$GPGGA,131510.260,5218.129,N,01223.189,E,1,12,1.0,0.0,M,0.0,M,,*6B
$GPGSA,A,3,01,02,03,04,05,06,07,08,09,10,11,12,1.0,1.0,1.0*30
$GPRMC,131510.260,A,5218.129,N,01223.189,E,038.8,094.5,120718,000.0,W*79
$GPGGA,131511.260,5218.128,N,01223.207,E,1,12,1.0,0.0,M,0.0,M,,*6E
$GPGSA,A,3,01,02,03,04,05,06,07,08,09,10,11,12,1.0,1.0,1.0*30
$GPRMC,131511.260,A,5218.128,N,01223.207,E,038.8,094.5,120718,000.0,W*7C
$GPGGA,131512.260,5218.126,N,01223.224,E,1,12,1.0,0.0,M,0.0,M,,*62
$GPGSA,A,3,01,02,03,04,05,06,07,08,09,10,11,12,1.0,1.0,1.0*30
$GPRMC,131512.260,A,5218.126,N,01223.224,E,038.8,094.5,120718,000.0,W*70
$GPGGA,131513.260,5218.125,N,01223.242,E,1,12,1.0,0.0,M,0.0,M,,*60
$GPGSA,A,3,01,02,03,04,05,06,07,08,09,10,11,12,1.0,1.0,1.0*30
$GPRMC,131513.260,A,5218.125,N,01223.242,E,038.8,094.5,120718,000.0,W*72
$GPGGA,131514.260,5218.123,N,01223.259,E,1,12,1.0,0.0,M,0.0,M,,*6B
$GPGSA,A,3,01,02,03,04,05,06,07,08,09,10,11,12,1.0,1.0,1.0*30
$GPRMC,131514.260,A,5218.123,N,01223.259,E,038.8,094.5,120718,000.0,W*79
$GPGGA,131515.260,5218.122,N,01223.277,E,1,12,1.0,0.0,M,0.0,M,,*67
$GPGSA,A,3,01,02,03,04,05,06,07,08,09,10,11,12,1.0,1.0,1.0*30
$GPRMC,131515.260,A,5218.122,N,01223.277,E,038.8,094.5,120718,000.0,W*75
$GPGGA,131516.260,5218.121,N,01223.294,E,1,12,1.0,0.0,M,0.0,M,,*6A
$GPGSA,A,3,01,02,03,04,05,06,07,08,09,10,11,12,1.0,1.0,1.0*30
$GPRMC,131516.260,A,5218.121,N,01223.294,E,038.8,094.5,120718,000.0,W*78
$GPGGA,131517.260,5218.119,N,01223.312,E,1,12,1.0,0.0,M,0.0,M,,*6F
$GPGSA,A,3,01,02,03,04,05,06,07,08,09,10,11,12,1.0,1.0,1.0*30
$GPRMC,131517.260,A,5218.119,N,01223.312,E,038.8,094.5,120718,000.0,W*7D
$GPGGA,131518.260,5218.118,N,01223.329,E,1,12,1.0,0.0,M,0.0,M,,*69
$GPGSA,A,3,01,02,03,04,05,06,07,08,09,10,11,12,1.0,1.0,1.0*30
$GPRMC,131518.260,A,5218.118,N,01223.329,E,038.8,094.5,120718,000.0,W*7B
$GPGGA,131519.260,5218.117,N,01223.347,E,1,12,1.0,0.0,M,0.0,M,,*6F
$GPGSA,A,3,01,02,03,04,05,06,07,08,09,10,11,12,1.0,1.0,1.0*30
$GPRMC,131519.260,A,5218.117,N,01223.347,E,038.8,094.5,120718,000.0,W*7D
$GPGGA,131520.260,5218.115,N,01223.364,E,1,12,1.0,0.0,M,0.0,M,,*66
$GPGSA,A,3,01,02,03,04,05,06,07,08,09,10,11,12,1.0,1.0,1.0*30
$GPRMC,131520.260,A,5218.115,N,01223.364,E,038.8,094.5,120718,000.0,W*74
$GPGGA,131521.260,5218.114,N,01223.382,E,1,12,1.0,0.0,M,0.0,M,,*6E
$GPGSA,A,3,01,02,03,04,05,06,07,08,09,10,11,12,1.0,1.0,1.0*30
$GPRMC,131521.260,A,5218.114,N,01223.382,E,038.8,094.5,120718,000.0,W*7C
$GPGGA,131522.260,5218.112,N,01223.399,E,1,12,1.0,0.0,M,0.0,M,,*61
$GPGSA,A,3,01,02,03,04,05,06,07,08,09,10,11,12,1.0,1.0,1.0*30
$GPRMC,131522.260,A,5218.112,N,01223.399,E,038.8,094.5,120718,000.0,W*73
$GPGGA,131523.260,5218.111,N,01223.417,E,1,12,1.0,0.0,M,0.0,M,,*62
$GPGSA,A,3,01,02,03,04,05,06,07,08,09,10,11,12,1.0,1.0,1.0*30
$GPRMC,131523.260,A,5218.111,N,01223.417,E,038.8,094.5,120718,000.0,W*70
$GPGGA,131524.260,5218.110,N,01223.434,E,1,12,1.0,0.0,M,0.0,M,,*65
$GPGSA,A,3,01,02,03,04,05,06,07,08,09,10,11,12,1.0,1.0,1.0*30
$GPRMC,131524.260,A,5218.110,N,01223.434,E,038.8,094.5,120718,000.0,W*77
$GPGGA,131525.260,5218.108,N,01223.452,E,1,12,1.0,0.0,M,0.0,M,,*6D
$GPGSA,A,3,01,02,03,04,05,06,07,08,09,10,11,12,1.0,1.0,1.0*30
$GPRMC,131525.260,A,5218.108,N,01223.452,E,038.8,094.5,120718,000.0,W*7F
$GPGGA,131526.260,5218.107,N,01223.469,E,1,12,1.0,0.0,M,0.0,M,,*69
$GPGSA,A,3,01,02,03,04,05,06,07,08,09,10,11,12,1.0,1.0,1.0*30
$GPRMC,131526.260,A,5218.107,N,01223.469,E,038.8,094.5,120718,000.0,W*7B
$GPGGA,131527.260,5218.106,N,01223.487,E,1,12,1.0,0.0,M,0.0,M,,*69
$GPGSA,A,3,01,02,03,04,05,06,07,08,09,10,11,12,1.0,1.0,1.0*30
$GPRMC,131527.260,A,5218.106,N,01223.487,E,038.8,094.5,120718,000.0,W*7B
$GPGGA,131528.260,5218.104,N,01223.504,E,1,12,1.0,0.0,M,0.0,M,,*6E
$GPGSA,A,3,01,02,03,04,05,06,07,08,09,10,11,12,1.0,1.0,1.0*30
$GPRMC,131528.260,A,5218.104,N,01223.504,E,038.8,094.5,120718,000.0,W*7C
$GPGGA,131529.260,5218.103,N,01223.521,E,1,12,1.0,0.0,M,0.0,M,,*6F
$GPGSA,A,3,01,02,03,04,05,06,07,08,09,10,11,12,1.0,1.0,1.0*30
$GPRMC,131529.260,A,5218.103,N,01223.521,E,038.8,094.5,120718,000.0,W*7D
$GPGGA,131530.260,5218.101,N,01223.539,E,1,12,1.0,0.0,M,0.0,M,,*6C
$GPGSA,A,3,01,02,03,04,05,06,07,08,09,10,11,12,1.0,1.0,1.0*30
$GPRMC,131530.260,A,5218.101,N,01223.539,E,038.8,094.5,120718,000.0,W*7E
$GPGGA,131531.260,5218.100,N,01223.556,E,1,12,1.0,0.0,M,0.0,M,,*65
$GPGSA,A,3,01,02,03,04,05,06,07,08,09,10,11,12,1.0,1.0,1.0*30
$GPRMC,131531.260,A,5218.100,N,01223.556,E,038.8,094.5,120718,000.0,W*77
$GPGGA,131532.260,5218.099,N,01223.574,E,1,12,1.0,0.0,M,0.0,M,,*67
$GPGSA,A,3,01,02,03,04,05,06,07,08,09,10,11,12,1.0,1.0,1.0*30
$GPRMC,131532.260,A,5218.099,N,01223.574,E,038.8,094.5,120718,000.0,W*75
$GPGGA,131533.260,5218.097,N,01223.591,E,1,12,1.0,0.0,M,0.0,M,,*63
$GPGSA,A,3,01,02,03,04,05,06,07,08,09,10,11,12,1.0,1.0,1.0*30
$GPRMC,131533.260,A,5218.097,N,01223.591,E,038.8,094.5,120718,000.0,W*71
$GPGGA,131534.260,5218.096,N,01223.609,E,1,12,1.0,0.0,M,0.0,M,,*67
$GPGSA,A,3,01,02,03,04,05,06,07,08,09,10,11,12,1.0,1.0,1.0*30
$GPRMC,131534.260,A,5218.096,N,01223.609,E,038.8,094.5,120718,000.0,W*75
$GPGGA,131535.260,5218.095,N,01223.626,E,1,12,1.0,0.0,M,0.0,M,,*68
$GPGSA,A,3,01,02,03,04,05,06,07,08,09,10,11,12,1.0,1.0,1.0*30
$GPRMC,131535.260,A,5218.095,N,01223.626,E,038.8,094.5,120718,000.0,W*7A
$GPGGA,131536.260,5218.093,N,01223.644,E,1,12,1.0,0.0,M,0.0,M,,*69
$GPGSA,A,3,01,02,03,04,05,06,07,08,09,10,11,12,1.0,1.0,1.0*30
$GPRMC,131536.260,A,5218.093,N,01223.644,E,038.8,094.5,120718,000.0,W*7B
$GPGGA,131537.260,5218.092,N,01223.661,E,1,12,1.0,0.0,M,0.0,M,,*6E
$GPGSA,A,3,01,02,03,04,05,06,07,08,09,10,11,12,1.0,1.0,1.0*30
$GPRMC,131537.260,A,5218.092,N,01223.661,E,038.8,094.5,120718,000.0,W*7C
$GPGGA,131538.260,5218.090,N,01223.679,E,1,12,1.0,0.0,M,0.0,M,,*6A
$GPGSA,A,3,01,02,03,04,05,06,07,08,09,10,11,12,1.0,1.0,1.0*30
$GPRMC,131538.260,A,5218.090,N,01223.679,E,038.8,094.5,120718,000.0,W*78
$GPGGA,131539.260,5218.089,N,01223.696,E,1,12,1.0,0.0,M,0.0,M,,*62
$GPGSA,A,3,01,02,03,04,05,06,07,08,09,10,11,12,1.0,1.0,1.0*30
$GPRMC,131539.260,A,5218.089,N,01223.696,E,038.8,094.5,120718,000.0,W*70
$GPGGA,131540.260,5218.088,N,01223.714,E,1,12,1.0,0.0,M,0.0,M,,*66
$GPGSA,A,3,01,02,03,04,05,06,07,08,09,10,11,12,1.0,1.0,1.0*30
$GPRMC,131540.260,A,5218.088,N,01223.714,E,038.8,094.5,120718,000.0,W*74
$GPGGA,131541.260,5218.086,N,01223.731,E,1,12,1.0,0.0,M,0.0,M,,*6E
$GPGSA,A,3,01,02,03,04,05,06,07,08,09,10,11,12,1.0,1.0,1.0*30
$GPRMC,131541.260,A,5218.086,N,01223.731,E,038.8,094.5,120718,000.0,W*7C
$GPGGA,131542.260,5218.085,N,01223.749,E,1,12,1.0,0.0,M,0.0,M,,*61
$GPGSA,A,3,01,02,03,04,05,06,07,08,09,10,11,12,1.0,1.0,1.0*30
$GPRMC,131542.260,A,5218.085,N,01223.749,E,038.8,094.5,120718,000.0,W*73
$GPGGA,131543.260,5218.084,N,01223.766,E,1,12,1.0,0.0,M,0.0,M,,*6C
$GPGSA,A,3,01,02,03,04,05,06,07,08,09,10,11,12,1.0,1.0,1.0*30
$GPRMC,131543.260,A,5218.084,N,01223.766,E,038.8,094.5,120718,000.0,W*7E
$GPGGA,131544.260,5218.082,N,01223.784,E,1,12,1.0,0.0,M,0.0,M,,*61
$GPGSA,A,3,01,02,03,04,05,06,07,08,09,10,11,12,1.0,1.0,1.0*30
$GPRMC,131544.260,A,5218.082,N,01223.784,E,038.8,094.5,120718,000.0,W*73
$GPGGA,131545.260,5218.081,N,01223.801,E,1,12,1.0,0.0,M,0.0,M,,*61
$GPGSA,A,3,01,02,03,04,05,06,07,08,09,10,11,12,1.0,1.0,1.0*30
$GPRMC,131545.260,A,5218.081,N,01223.801,E,038.8,094.5,120718,000.0,W*73
$GPGGA,131546.260,5218.079,N,01223.819,E,1,12,1.0,0.0,M,0.0,M,,*6C
$GPGSA,A,3,01,02,03,04,05,06,07,08,09,10,11,12,1.0,1.0,1.0*30
$GPRMC,131546.260,A,5218.079,N,01223.819,E,038.8,094.5,120718,000.0,W*7E
$GPGGA,131547.260,5218.078,N,01223.836,E,1,12,1.0,0.0,M,0.0,M,,*61
$GPGSA,A,3,01,02,03,04,05,06,07,08,09,10,11,12,1.0,1.0,1.0*30
$GPRMC,131547.260,A,5218.078,N,01223.836,E,038.8,094.5,120718,000.0,W*73
$GPGGA,131548.260,5218.077,N,01223.853,E,1,12,1.0,0.0,M,0.0,M,,*62
$GPGSA,A,3,01,02,03,04,05,06,07,08,09,10,11,12,1.0,1.0,1.0*30
$GPRMC,131548.260,A,5218.077,N,01223.853,E,038.8,094.5,120718,000.0,W*70
$GPGGA,131549.260,5218.075,N,01223.871,E,1,12,1.0,0.0,M,0.0,M,,*61
$GPGSA,A,3,01,02,03,04,05,06,07,08,09,10,11,12,1.0,1.0,1.0*30
$GPRMC,131549.260,A,5218.075,N,01223.871,E,038.8,094.5,120718,000.0,W*73
$GPGGA,131550.260,5218.074,N,01223.888,E,1,12,1.0,0.0,M,0.0,M,,*6E
$GPGSA,A,3,01,02,03,04,05,06,07,08,09,10,11,12,1.0,1.0,1.0*30
$GPRMC,131550.260,A,5218.074,N,01223.888,E,038.8,094.5,120718,000.0,W*7C
$GPGGA,131551.260,5218.073,N,01223.906,E,1,12,1.0,0.0,M,0.0,M,,*6F
$GPGSA,A,3,01,02,03,04,05,06,07,08,09,10,11,12,1.0,1.0,1.0*30
$GPRMC,131551.260,A,5218.073,N,01223.906,E,038.8,094.5,120718,000.0,W*7D
$GPGGA,131552.260,5218.071,N,01223.923,E,1,12,1.0,0.0,M,0.0,M,,*69
$GPGSA,A,3,01,02,03,04,05,06,07,08,09,10,11,12,1.0,1.0,1.0*30
$GPRMC,131552.260,A,5218.071,N,01223.923,E,038.8,094.5,120718,000.0,W*7B
$GPGGA,131553.260,5218.070,N,01223.941,E,1,12,1.0,0.0,M,0.0,M,,*6D
$GPGSA,A,3,01,02,03,04,05,06,07,08,09,10,11,12,1.0,1.0,1.0*30
$GPRMC,131553.260,A,5218.070,N,01223.941,E,038.8,094.5,120718,000.0,W*7F
$GPGGA,131554.260,5218.069,N,01223.958,E,1,12,1.0,0.0,M,0.0,M,,*6A
$GPGSA,A,3,01,02,03,04,05,06,07,08,09,10,11,12,1.0,1.0,1.0*30
$GPRMC,131554.260,A,5218.069,N,01223.958,E,038.8,094.5,120718,000.0,W*78
$GPGGA,131555.260,5218.067,N,01223.976,E,1,12,1.0,0.0,M,0.0,M,,*69
$GPGSA,A,3,01,02,03,04,05,06,07,08,09,10,11,12,1.0,1.0,1.0*30
$GPRMC,131555.260,A,5218.067,N,01223.976,E,038.8,094.5,120718,000.0,W*7B
$GPGGA,131556.260,5218.066,N,01223.993,E,1,12,1.0,0.0,M,0.0,M,,*60
$GPGSA,A,3,01,02,03,04,05,06,07,08,09,10,11,12,1.0,1.0,1.0*30
$GPRMC,131556.260,A,5218.066,N,01223.993,E,038.8,094.5,120718,000.0,W*72
$GPGGA,131557.260,5218.064,N,01224.011,E,1,12,1.0,0.0,M,0.0,M,,*67
$GPGSA,A,3,01,02,03,04,05,06,07,08,09,10,11,12,1.0,1.0,1.0*30
$GPRMC,131557.260,A,5218.064,N,01224.011,E,038.8,094.5,120718,000.0,W*75
$GPGGA,131558.260,5218.063,N,01224.028,E,1,12,1.0,0.0,M,0.0,M,,*65
$GPGSA,A,3,01,02,03,04,05,06,07,08,09,10,11,12,1.0,1.0,1.0*30
$GPRMC,131558.260,A,5218.063,N,01224.028,E,038.8,094.5,120718,000.0,W*77
$GPGGA,131559.260,5218.062,N,01224.046,E,1,12,1.0,0.0,M,0.0,M,,*6D
$GPGSA,A,3,01,02,03,04,05,06,07,08,09,10,11,12,1.0,1.0,1.0*30
$GPRMC,131559.260,A,5218.062,N,01224.046,E,038.8,094.5,120718,000.0,W*7F
$GPGGA,131600.260,5218.060,N,01224.063,E,1,12,1.0,0.0,M,0.0,M,,*67
$GPGSA,A,3,01,02,03,04,05,06,07,08,09,10,11,12,1.0,1.0,1.0*30
$GPRMC,131600.260,A,5218.060,N,01224.063,E,038.8,094.5,120718,000.0,W*75
$GPGGA,131601.260,5218.059,N,01224.081,E,1,12,1.0,0.0,M,0.0,M,,*60
$GPGSA,A,3,01,02,03,04,05,06,07,08,09,10,11,12,1.0,1.0,1.0*30
$GPRMC,131601.260,A,5218.059,N,01224.081,E,038.8,094.5,120718,000.0,W*72
$GPGGA,131602.260,5218.058,N,01224.098,E,1,12,1.0,0.0,M,0.0,M,,*6A
$GPGSA,A,3,01,02,03,04,05,06,07,08,09,10,11,12,1.0,1.0,1.0*30
$GPRMC,131602.260,A,5218.058,N,01224.098,E,038.8,094.5,120718,000.0,W*78
$GPGGA,131603.260,5218.056,N,01224.116,E,1,12,1.0,0.0,M,0.0,M,,*62
$GPGSA,A,3,01,02,03,04,05,06,07,08,09,10,11,12,1.0,1.0,1.0*30
$GPRMC,131603.260,A,5218.056,N,01224.116,E,038.8,094.5,120718,000.0,W*70
$GPGGA,131604.260,5218.055,N,01224.133,E,1,12,1.0,0.0,M,0.0,M,,*61
$GPGSA,A,3,01,02,03,04,05,06,07,08,09,10,11,12,1.0,1.0,1.0*30
$GPRMC,131604.260,A,5218.055,N,01224.133,E,038.8,094.5,120718,000.0,W*73
$GPGGA,131605.260,5218.053,N,01224.150,E,1,12,1.0,0.0,M,0.0,M,,*63
$GPGSA,A,3,01,02,03,04,05,06,07,08,09,10,11,12,1.0,1.0,1.0*30
$GPRMC,131605.260,A,5218.053,N,01224.150,E,038.8,094.5,120718,000.0,W*71
$GPGGA,131606.260,5218.052,N,01224.168,E,1,12,1.0,0.0,M,0.0,M,,*6A
$GPGSA,A,3,01,02,03,04,05,06,07,08,09,10,11,12,1.0,1.0,1.0*30
$GPRMC,131606.260,A,5218.052,N,01224.168,E,038.8,094.5,120718,000.0,W*78
$GPGGA,131607.260,5218.051,N,01224.185,E,1,12,1.0,0.0,M,0.0,M,,*6B
$GPGSA,A,3,01,02,03,04,05,06,07,08,09,10,11,12,1.0,1.0,1.0*30
$GPRMC,131607.260,A,5218.051,N,01224.185,E,038.8,094.5,120718,000.0,W*79
$GPGGA,131608.260,5218.049,N,01224.203,E,1,12,1.0,0.0,M,0.0,M,,*60
$GPGSA,A,3,01,02,03,04,05,06,07,08,09,10,11,12,1.0,1.0,1.0*30
$GPRMC,131608.260,A,5218.049,N,01224.203,E,038.8,094.5,120718,000.0,W*72
$GPGGA,131609.260,5218.048,N,01224.220,E,1,12,1.0,0.0,M,0.0,M,,*61
$GPGSA,A,3,01,02,03,04,05,06,07,08,09,10,11,12,1.0,1.0,1.0*30
$GPRMC,131609.260,A,5218.048,N,01224.220,E,038.8,094.5,120718,000.0,W*73
$GPGGA,131610.260,5218.047,N,01224.238,E,1,12,1.0,0.0,M,0.0,M,,*6F
$GPGSA,A,3,01,02,03,04,05,06,07,08,09,10,11,12,1.0,1.0,1.0*30
$GPRMC,131610.260,A,5218.047,N,01224.238,E,038.8,094.5,120718,000.0,W*7D
$GPGGA,131611.260,5218.045,N,01224.255,E,1,12,1.0,0.0,M,0.0,M,,*67
$GPGSA,A,3,01,02,03,04,05,06,07,08,09,10,11,12,1.0,1.0,1.0*30
$GPRMC,131611.260,A,5218.045,N,01224.255,E,038.8,094.5,120718,000.0,W*75
$GPGGA,131612.260,5218.044,N,01224.273,E,1,12,1.0,0.0,M,0.0,M,,*61
$GPGSA,A,3,01,02,03,04,05,06,07,08,09,10,11,12,1.0,1.0,1.0*30
$GPRMC,131612.260,A,5218.044,N,01224.273,E,038.8,094.5,120718,000.0,W*73
$GPGGA,131613.260,5218.042,N,01224.290,E,1,12,1.0,0.0,M,0.0,M,,*6B
$GPGSA,A,3,01,02,03,04,05,06,07,08,09,10,11,12,1.0,1.0,1.0*30
$GPRMC,131613.260,A,5218.042,N,01224.290,E,038.8,094.5,120718,000.0,W*79
$GPGGA,131614.260,5218.041,N,01224.308,E,1,12,1.0,0.0,M,0.0,M,,*6F
$GPGSA,A,3,01,02,03,04,05,06,07,08,09,10,11,12,1.0,1.0,1.0*30
$GPRMC,131614.260,A,5218.041,N,01224.308,E,038.8,094.5,120718,000.0,W*7D
$GPGGA,131615.260,5218.040,N,01224.325,E,1,12,1.0,0.0,M,0.0,M,,*60
$GPGSA,A,3,01,02,03,04,05,06,07,08,09,10,11,12,1.0,1.0,1.0*30
$GPRMC,131615.260,A,5218.040,N,01224.325,E,038.8,094.5,120718,000.0,W*72
$GPGGA,131616.260,5218.038,N,01224.343,E,1,12,1.0,0.0,M,0.0,M,,*6C
$GPGSA,A,3,01,02,03,04,05,06,07,08,09,10,11,12,1.0,1.0,1.0*30
$GPRMC,131616.260,A,5218.038,N,01224.343,E,038.8,094.5,120718,000.0,W*7E
$GPGGA,131617.260,5218.037,N,01224.360,E,1,12,1.0,0.0,M,0.0,M,,*63
$GPGSA,A,3,01,02,03,04,05,06,07,08,09,10,11,12,1.0,1.0,1.0*30
$GPRMC,131617.260,A,5218.037,N,01224.360,E,038.8,094.5,120718,000.0,W*71
$GPGGA,131618.260,5218.036,N,01224.378,E,1,12,1.0,0.0,M,0.0,M,,*64
$GPGSA,A,3,01,02,03,04,05,06,07,08,09,10,11,12,1.0,1.0,1.0*30
$GPRMC,131618.260,A,5218.036,N,01224.378,E,038.8,094.5,120718,000.0,W*76
$GPGGA,131619.260,5218.034,N,01224.395,E,1,12,1.0,0.0,M,0.0,M,,*64
$GPGSA,A,3,01,02,03,04,05,06,07,08,09,10,11,12,1.0,1.0,1.0*30
$GPRMC,131619.260,A,5218.034,N,01224.395,E,038.8,094.5,120718,000.0,W*76
$GPGGA,131620.260,5218.033,N,01224.413,E,1,12,1.0,0.0,M,0.0,M,,*60
$GPGSA,A,3,01,02,03,04,05,06,07,08,09,10,11,12,1.0,1.0,1.0*30
$GPRMC,131620.260,A,5218.033,N,01224.413,E,038.8,094.5,120718,000.0,W*72
$GPGGA,131621.260,5218.031,N,01224.430,E,1,12,1.0,0.0,M,0.0,M,,*62
$GPGSA,A,3,01,02,03,04,05,06,07,08,09,10,11,12,1.0,1.0,1.0*30
$GPRMC,131621.260,A,5218.031,N,01224.430,E,038.8,094.5,120718,000.0,W*70
$GPGGA,131622.260,5218.030,N,01224.448,E,1,12,1.0,0.0,M,0.0,M,,*6F
$GPGSA,A,3,01,02,03,04,05,06,07,08,09,10,11,12,1.0,1.0,1.0*30
$GPRMC,131622.260,A,5218.030,N,01224.448,E,038.8,094.5,120718,000.0,W*7D
$GPGGA,131623.260,5218.029,N,01224.465,E,1,12,1.0,0.0,M,0.0,M,,*69
$GPGSA,A,3,01,02,03,04,05,06,07,08,09,10,11,12,1.0,1.0,1.0*30
$GPRMC,131623.260,A,5218.029,N,01224.465,E,038.8,094.5,120718,000.0,W*7B
$GPGGA,131624.260,5218.027,N,01224.482,E,1,12,1.0,0.0,M,0.0,M,,*69
$GPGSA,A,3,01,02,03,04,05,06,07,08,09,10,11,12,1.0,1.0,1.0*30
$GPRMC,131624.260,A,5218.027,N,01224.482,E,038.8,094.5,120718,000.0,W*7B
$GPGGA,131625.260,5218.026,N,01224.500,E,1,12,1.0,0.0,M,0.0,M,,*62
$GPGSA,A,3,01,02,03,04,05,06,07,08,09,10,11,12,1.0,1.0,1.0*30
$GPRMC,131625.260,A,5218.026,N,01224.500,E,038.8,094.5,120718,000.0,W*70
$GPGGA,131626.260,5218.025,N,01224.517,E,1,12,1.0,0.0,M,0.0,M,,*64
$GPGSA,A,3,01,02,03,04,05,06,07,08,09,10,11,12,1.0,1.0,1.0*30
$GPRMC,131626.260,A,5218.025,N,01224.517,E,038.8,094.5,120718,000.0,W*76
$GPGGA,131627.260,5218.023,N,01224.535,E,1,12,1.0,0.0,M,0.0,M,,*63
$GPGSA,A,3,01,02,03,04,05,06,07,08,09,10,11,12,1.0,1.0,1.0*30
$GPRMC,131627.260,A,5218.023,N,01224.535,E,038.8,094.5,120718,000.0,W*71
$GPGGA,131628.260,5218.022,N,01224.552,E,1,12,1.0,0.0,M,0.0,M,,*6C
$GPGSA,A,3,01,02,03,04,05,06,07,08,09,10,11,12,1.0,1.0,1.0*30
$GPRMC,131628.260,A,5218.022,N,01224.552,E,038.8,094.5,120718,000.0,W*7E
$GPGGA,131629.260,5218.021,N,01224.570,E,1,12,1.0,0.0,M,0.0,M,,*6E
$GPGSA,A,3,01,02,03,04,05,06,07,08,09,10,11,12,1.0,1.0,1.0*30
$GPRMC,131629.260,A,5218.021,N,01224.570,E,038.8,094.5,120718,000.0,W*7C
$GPGGA,131630.260,5218.019,N,01224.587,E,1,12,1.0,0.0,M,0.0,M,,*65
$GPGSA,A,3,01,02,03,04,05,06,07,08,09,10,11,12,1.0,1.0,1.0*30
$GPRMC,131630.260,A,5218.019,N,01224.587,E,038.8,094.5,120718,000.0,W*77
$GPGGA,131631.260,5218.018,N,01224.605,E,1,12,1.0,0.0,M,0.0,M,,*6C
$GPGSA,A,3,01,02,03,04,05,06,07,08,09,10,11,12,1.0,1.0,1.0*30
$GPRMC,131631.260,A,5218.018,N,01224.605,E,038.8,094.5,120718,000.0,W*7E
$GPGGA,131632.260,5218.016,N,01224.622,E,1,12,1.0,0.0,M,0.0,M,,*64
$GPGSA,A,3,01,02,03,04,05,06,07,08,09,10,11,12,1.0,1.0,1.0*30
$GPRMC,131632.260,A,5218.016,N,01224.622,E,038.8,094.5,120718,000.0,W*76
$GPGGA,131633.260,5218.015,N,01224.640,E,1,12,1.0,0.0,M,0.0,M,,*62
$GPGSA,A,3,01,02,03,04,05,06,07,08,09,10,11,12,1.0,1.0,1.0*30
$GPRMC,131633.260,A,5218.015,N,01224.640,E,038.8,094.5,120718,000.0,W*70
$GPGGA,131634.260,5218.014,N,01224.657,E,1,12,1.0,0.0,M,0.0,M,,*62
$GPGSA,A,3,01,02,03,04,05,06,07,08,09,10,11,12,1.0,1.0,1.0*30
$GPRMC,131634.260,A,5218.014,N,01224.657,E,038.8,094.5,120718,000.0,W*70
$GPGGA,131635.260,5218.012,N,01224.675,E,1,12,1.0,0.0,M,0.0,M,,*65
$GPGSA,A,3,01,02,03,04,05,06,07,08,09,10,11,12,1.0,1.0,1.0*30
$GPRMC,131635.260,A,5218.012,N,01224.675,E,038.8,094.5,120718,000.0,W*77
$GPGGA,131636.260,5218.011,N,01224.692,E,1,12,1.0,0.0,M,0.0,M,,*6C
$GPGSA,A,3,01,02,03,04,05,06,07,08,09,10,11,12,1.0,1.0,1.0*30
$GPRMC,131636.260,A,5218.011,N,01224.692,E,038.8,094.5,120718,000.0,W*7E
$GPGGA,131637.260,5218.010,N,01224.710,E,1,12,1.0,0.0,M,0.0,M,,*67
$GPGSA,A,3,01,02,03,04,05,06,07,08,09,10,11,12,1.0,1.0,1.0*30
$GPRMC,131637.260,A,5218.010,N,01224.710,E,038.8,094.5,120718,000.0,W*75
$GPGGA,131638.260,5218.008,N,01224.727,E,1,12,1.0,0.0,M,0.0,M,,*65
$GPGSA,A,3,01,02,03,04,05,06,07,08,09,10,11,12,1.0,1.0,1.0*30
$GPRMC,131638.260,A,5218.008,N,01224.727,E,038.8,094.5,120718,000.0,W*77
$GPGGA,131639.260,5218.007,N,01224.745,E,1,12,1.0,0.0,M,0.0,M,,*6F
$GPGSA,A,3,01,02,03,04,05,06,07,08,09,10,11,12,1.0,1.0,1.0*30
$GPRMC,131639.260,A,5218.007,N,01224.745,E,038.8,094.5,120718,000.0,W*7D
$GPGGA,131640.260,5218.005,N,01224.762,E,1,12,1.0,0.0,M,0.0,M,,*66
$GPGSA,A,3,01,02,03,04,05,06,07,08,09,10,11,12,1.0,1.0,1.0*30
$GPRMC,131640.260,A,5218.005,N,01224.762,E,038.8,094.5,120718,000.0,W*74
$GPGGA,131641.260,5218.004,N,01224.780,E,1,12,1.0,0.0,M,0.0,M,,*6A
$GPGSA,A,3,01,02,03,04,05,06,07,08,09,10,11,12,1.0,1.0,1.0*30
$GPRMC,131641.260,A,5218.004,N,01224.780,E,038.8,094.5,120718,000.0,W*78
$GPGGA,131642.260,5218.003,N,01224.797,E,1,12,1.0,0.0,M,0.0,M,,*68
$GPGSA,A,3,01,02,03,04,05,06,07,08,09,10,11,12,1.0,1.0,1.0*30
$GPRMC,131642.260,A,5218.003,N,01224.797,E,038.8,094.5,120718,000.0,W*7A
$GPGGA,131643.260,5218.001,N,01224.814,E,1,12,1.0,0.0,M,0.0,M,,*6F
$GPGSA,A,3,01,02,03,04,05,06,07,08,09,10,11,12,1.0,1.0,1.0*30
$GPRMC,131643.260,A,5218.001,N,01224.814,E,038.8,094.5,120718,000.0,W*7D
$GPGGA,131644.260,5218.000,N,01224.832,E,1,12,1.0,0.0,M,0.0,M,,*6D
$GPGSA,A,3,01,02,03,04,05,06,07,08,09,10,11,12,1.0,1.0,1.0*30
$GPRMC,131644.260,A,5218.000,N,01224.832,E,038.8,094.5,120718,000.0,W*7F
$GPGGA,131645.260,5217.999,N,01224.849,E,1,12,1.0,0.0,M,0.0,M,,*66
$GPGSA,A,3,01,02,03,04,05,06,07,08,09,10,11,12,1.0,1.0,1.0*30
$GPRMC,131645.260,A,5217.999,N,01224.849,E,038.8,094.5,120718,000.0,W*74
$GPGGA,131646.260,5217.997,N,01224.867,E,1,12,1.0,0.0,M,0.0,M,,*67
$GPGSA,A,3,01,02,03,04,05,06,07,08,09,10,11,12,1.0,1.0,1.0*30
$GPRMC,131646.260,A,5217.997,N,01224.867,E,038.8,094.5,120718,000.0,W*75
$GPGGA,131647.260,5217.996,N,01224.884,E,1,12,1.0,0.0,M,0.0,M,,*6A
$GPGSA,A,3,01,02,03,04,05,06,07,08,09,10,11,12,1.0,1.0,1.0*30
$GPRMC,131647.260,A,5217.996,N,01224.884,E,038.8,094.5,120718,000.0,W*78
$GPGGA,131648.260,5217.994,N,01224.902,E,1,12,1.0,0.0,M,0.0,M,,*68
$GPGSA,A,3,01,02,03,04,05,06,07,08,09,10,11,12,1.0,1.0,1.0*30
$GPRMC,131648.260,A,5217.994,N,01224.902,E,038.8,094.5,120718,000.0,W*7A
$GPGGA,131649.260,5217.993,N,01224.919,E,1,12,1.0,0.0,M,0.0,M,,*64
$GPGSA,A,3,01,02,03,04,05,06,07,08,09,10,11,12,1.0,1.0,1.0*30
$GPRMC,131649.260,A,5217.993,N,01224.919,E,038.8,094.5,120718,000.0,W*76
$GPGGA,131650.260,5217.992,N,01224.937,E,1,12,1.0,0.0,M,0.0,M,,*61
$GPGSA,A,3,01,02,03,04,05,06,07,08,09,10,11,12,1.0,1.0,1.0*30
$GPRMC,131650.260,A,5217.992,N,01224.937,E,038.8,094.5,120718,000.0,W*73
$GPGGA,131651.260,5217.990,N,01224.954,E,1,12,1.0,0.0,M,0.0,M,,*67
$GPGSA,A,3,01,02,03,04,05,06,07,08,09,10,11,12,1.0,1.0,1.0*30
$GPRMC,131651.260,A,5217.990,N,01224.954,E,038.8,094.5,120718,000.0,W*75
$GPGGA,131652.260,5217.989,N,01224.972,E,1,12,1.0,0.0,M,0.0,M,,*68
$GPGSA,A,3,01,02,03,04,05,06,07,08,09,10,11,12,1.0,1.0,1.0*30
$GPRMC,131652.260,A,5217.989,N,01224.972,E,038.8,094.5,120718,000.0,W*7A
$GPGGA,131653.260,5217.988,N,01224.989,E,1,12,1.0,0.0,M,0.0,M,,*6C
$GPGSA,A,3,01,02,03,04,05,06,07,08,09,10,11,12,1.0,1.0,1.0*30
$GPRMC,131653.260,A,5217.988,N,01224.989,E,038.8,094.5,120718,000.0,W*7E
$GPGGA,131654.260,5217.986,N,01225.007,E,1,12,1.0,0.0,M,0.0,M,,*6B
$GPGSA,A,3,01,02,03,04,05,06,07,08,09,10,11,12,1.0,1.0,1.0*30
$GPRMC,131654.260,A,5217.986,N,01225.007,E,038.8,094.5,120718,000.0,W*79
$GPGGA,131655.260,5217.985,N,01225.024,E,1,12,1.0,0.0,M,0.0,M,,*68
$GPGSA,A,3,01,02,03,04,05,06,07,08,09,10,11,12,1.0,1.0,1.0*30
$GPRMC,131655.260,A,5217.985,N,01225.024,E,038.8,094.5,120718,000.0,W*7A
$GPGGA,131656.260,5217.983,N,01225.042,E,1,12,1.0,0.0,M,0.0,M,,*6D
$GPGSA,A,3,01,02,03,04,05,06,07,08,09,10,11,12,1.0,1.0,1.0*30
$GPRMC,131656.260,A,5217.983,N,01225.042,E,038.8,094.5,120718,000.0,W*7F
$GPGGA,131657.260,5217.982,N,01225.059,E,1,12,1.0,0.0,M,0.0,M,,*67
$GPGSA,A,3,01,02,03,04,05,06,07,08,09,10,11,12,1.0,1.0,1.0*30
$GPRMC,131657.260,A,5217.982,N,01225.059,E,038.8,094.5,120718,000.0,W*75
$GPGGA,131658.260,5217.981,N,01225.077,E,1,12,1.0,0.0,M,0.0,M,,*67
$GPGSA,A,3,01,02,03,04,05,06,07,08,09,10,11,12,1.0,1.0,1.0*30
$GPRMC,131658.260,A,5217.981,N,01225.077,E,038.8,094.5,120718,000.0,W*75
$GPGGA,131659.260,5217.979,N,01225.094,E,1,12,1.0,0.0,M,0.0,M,,*6C
$GPGSA,A,3,01,02,03,04,05,06,07,08,09,10,11,12,1.0,1.0,1.0*30
$GPRMC,131659.260,A,5217.979,N,01225.094,E,038.8,094.5,120718,000.0,W*7E
$GPGGA,131700.260,5217.978,N,01225.112,E,1,12,1.0,0.0,M,0.0,M,,*6F
$GPGSA,A,3,01,02,03,04,05,06,07,08,09,10,11,12,1.0,1.0,1.0*30
$GPRMC,131700.260,A,5217.978,N,01225.112,E,038.8,094.5,120718,000.0,W*7D
$GPGGA,131701.260,5217.977,N,01225.129,E,1,12,1.0,0.0,M,0.0,M,,*69
$GPGSA,A,3,01,02,03,04,05,06,07,08,09,10,11,12,1.0,1.0,1.0*30
$GPRMC,131701.260,A,5217.977,N,01225.129,E,038.8,094.5,120718,000.0,W*7B
$GPGGA,131702.260,5217.975,N,01225.146,E,1,12,1.0,0.0,M,0.0,M,,*61
$GPGSA,A,3,01,02,03,04,05,06,07,08,09,10,11,12,1.0,1.0,1.0*30
$GPRMC,131702.260,A,5217.975,N,01225.146,E,038.8,094.5,120718,000.0,W*73
$GPGGA,131703.260,5217.974,N,01225.164,E,1,12,1.0,0.0,M,0.0,M,,*61
$GPGSA,A,3,01,02,03,04,05,06,07,08,09,10,11,12,1.0,1.0,1.0*30
$GPRMC,131703.260,A,5217.974,N,01225.164,E,038.8,094.5,120718,000.0,W*73
$GPGGA,131704.260,5217.972,N,01225.181,E,1,12,1.0,0.0,M,0.0,M,,*6B
$GPGSA,A,3,01,02,03,04,05,06,07,08,09,10,11,12,1.0,1.0,1.0*30
$GPRMC,131704.260,A,5217.972,N,01225.181,E,038.8,094.5,120718,000.0,W*79
$GPGGA,131705.260,5217.971,N,01225.199,E,1,12,1.0,0.0,M,0.0,M,,*60
$GPGSA,A,3,01,02,03,04,05,06,07,08,09,10,11,12,1.0,1.0,1.0*30
$GPRMC,131705.260,A,5217.971,N,01225.199,E,038.8,094.5,120718,000.0,W*72
$GPGGA,131706.260,5217.970,N,01225.216,E,1,12,1.0,0.0,M,0.0,M,,*66
$GPGSA,A,3,01,02,03,04,05,06,07,08,09,10,11,12,1.0,1.0,1.0*30
$GPRMC,131706.260,A,5217.970,N,01225.216,E,038.8,094.5,120718,000.0,W*74
$GPGGA,131707.260,5217.968,N,01225.234,E,1,12,1.0,0.0,M,0.0,M,,*6E
$GPGSA,A,3,01,02,03,04,05,06,07,08,09,10,11,12,1.0,1.0,1.0*30
$GPRMC,131707.260,A,5217.968,N,01225.234,E,038.8,094.5,120718,000.0,W*7C
$GPGGA,131708.260,5217.967,N,01225.251,E,1,12,1.0,0.0,M,0.0,M,,*6D
$GPGSA,A,3,01,02,03,04,05,06,07,08,09,10,11,12,1.0,1.0,1.0*30
$GPRMC,131708.260,A,5217.967,N,01225.251,E,038.8,094.5,120718,000.0,W*7F
$GPGGA,131709.260,5217.966,N,01225.269,E,1,12,1.0,0.0,M,0.0,M,,*66
$GPGSA,A,3,01,02,03,04,05,06,07,08,09,10,11,12,1.0,1.0,1.0*30
$GPRMC,131709.260,A,5217.966,N,01225.269,E,038.8,094.5,120718,000.0,W*74
$GPGGA,131710.260,5217.964,N,01225.286,E,1,12,1.0,0.0,M,0.0,M,,*6D
$GPGSA,A,3,01,02,03,04,05,06,07,08,09,10,11,12,1.0,1.0,1.0*30
$GPRMC,131710.260,A,5217.964,N,01225.286,E,038.8,094.5,120718,000.0,W*7F
$GPGGA,131711.260,5217.963,N,01225.304,E,1,12,1.0,0.0,M,0.0,M,,*60
$GPGSA,A,3,01,02,03,04,05,06,07,08,09,10,11,12,1.0,1.0,1.0*30
$GPRMC,131711.260,A,5217.963,N,01225.304,E,038.8,094.5,120718,000.0,W*72
$GPGGA,131712.260,5217.962,N,01225.321,E,1,12,1.0,0.0,M,0.0,M,,*65
$GPGSA,A,3,01,02,03,04,05,06,07,08,09,10,11,12,1.0,1.0,1.0*30
$GPRMC,131712.260,A,5217.962,N,01225.321,E,038.8,094.5,120718,000.0,W*77
$GPGGA,131713.260,5217.960,N,01225.339,E,1,12,1.0,0.0,M,0.0,M,,*6F
$GPGSA,A,3,01,02,03,04,05,06,07,08,09,10,11,12,1.0,1.0,1.0*30
$GPRMC,131713.260,A,5217.960,N,01225.339,E,038.8,094.5,120718,000.0,W*7D
$GPGGA,131714.260,5217.959,N,01225.356,E,1,12,1.0,0.0,M,0.0,M,,*6B
$GPGSA,A,3,01,02,03,04,05,06,07,08,09,10,11,12,1.0,1.0,1.0*30
$GPRMC,131714.260,A,5217.959,N,01225.356,E,038.8,094.5,120718,000.0,W*79
$GPGGA,131715.260,5217.957,N,01225.374,E,1,12,1.0,0.0,M,0.0,M,,*64
$GPGSA,A,3,01,02,03,04,05,06,07,08,09,10,11,12,1.0,1.0,1.0*30
$GPRMC,131715.260,A,5217.957,N,01225.374,E,038.8,094.5,120718,000.0,W*76
$GPGGA,131716.260,5217.956,N,01225.391,E,1,12,1.0,0.0,M,0.0,M,,*6D
$GPGSA,A,3,01,02,03,04,05,06,07,08,09,10,11,12,1.0,1.0,1.0*30
$GPRMC,131716.260,A,5217.956,N,01225.391,E,038.8,094.5,120718,000.0,W*7F
$GPGGA,131717.260,5217.955,N,01225.409,E,1,12,1.0,0.0,M,0.0,M,,*69
$GPGSA,A,3,01,02,03,04,05,06,07,08,09,10,11,12,1.0,1.0,1.0*30
$GPRMC,131717.260,A,5217.955,N,01225.409,E,038.8,094.5,120718,000.0,W*7B
$GPGGA,131718.260,5217.953,N,01225.426,E,1,12,1.0,0.0,M,0.0,M,,*6D
$GPGSA,A,3,01,02,03,04,05,06,07,08,09,10,11,12,1.0,1.0,1.0*30
$GPRMC,131718.260,A,5217.953,N,01225.426,E,038.8,094.5,120718,000.0,W*7F
$GPGGA,131719.260,5217.952,N,01225.444,E,1,12,1.0,0.0,M,0.0,M,,*69
$GPGSA,A,3,01,02,03,04,05,06,07,08,09,10,11,12,1.0,1.0,1.0*30
$GPRMC,131719.260,A,5217.952,N,01225.444,E,038.8,094.5,120718,000.0,W*7B
$GPGGA,131720.260,5217.951,N,01225.461,E,1,12,1.0,0.0,M,0.0,M,,*67
$GPGSA,A,3,01,02,03,04,05,06,07,08,09,10,11,12,1.0,1.0,1.0*30
$GPRMC,131720.260,A,5217.951,N,01225.461,E,038.8,094.5,120718,000.0,W*75
$GPGGA,131721.260,5217.949,N,01225.478,E,1,12,1.0,0.0,M,0.0,M,,*67
$GPGSA,A,3,01,02,03,04,05,06,07,08,09,10,11,12,1.0,1.0,1.0*30
$GPRMC,131721.260,A,5217.949,N,01225.478,E,038.8,094.5,120718,000.0,W*75
$GPGGA,131722.260,5217.948,N,01225.496,E,1,12,1.0,0.0,M,0.0,M,,*65
$GPGSA,A,3,01,02,03,04,05,06,07,08,09,10,11,12,1.0,1.0,1.0*30
$GPRMC,131722.260,A,5217.948,N,01225.496,E,038.8,094.5,120718,000.0,W*77
$GPGGA,131723.260,5217.946,N,01225.513,E,1,12,1.0,0.0,M,0.0,M,,*66
$GPGSA,A,3,01,02,03,04,05,06,07,08,09,10,11,12,1.0,1.0,1.0*30
$GPRMC,131723.260,A,5217.946,N,01225.513,E,038.8,094.5,120718,000.0,W*74
$GPGGA,131724.260,5217.945,N,01225.531,E,1,12,1.0,0.0,M,0.0,M,,*62
$GPGSA,A,3,01,02,03,04,05,06,07,08,09,10,11,12,1.0,1.0,1.0*30
$GPRMC,131724.260,A,5217.945,N,01225.531,E,038.8,094.5,120718,000.0,W*70
$GPGGA,131725.260,5217.944,N,01225.548,E,1,12,1.0,0.0,M,0.0,M,,*6C
$GPGSA,A,3,01,02,03,04,05,06,07,08,09,10,11,12,1.0,1.0,1.0*30
$GPRMC,131725.260,A,5217.944,N,01225.548,E,038.8,094.5,120718,000.0,W*7E
$GPGGA,131726.260,5217.942,N,01225.566,E,1,12,1.0,0.0,M,0.0,M,,*65
$GPGSA,A,3,01,02,03,04,05,06,07,08,09,10,11,12,1.0,1.0,1.0*30
$GPRMC,131726.260,A,5217.942,N,01225.566,E,038.8,094.5,120718,000.0,W*77
$GPGGA,131727.260,5217.941,N,01225.583,E,1,12,1.0,0.0,M,0.0,M,,*6C
$GPGSA,A,3,01,02,03,04,05,06,07,08,09,10,11,12,1.0,1.0,1.0*30
$GPRMC,131727.260,A,5217.941,N,01225.583,E,038.8,094.5,120718,000.0,W*7E
$GPGGA,131728.260,5217.940,N,01225.601,E,1,12,1.0,0.0,M,0.0,M,,*6B
$GPGSA,A,3,01,02,03,04,05,06,07,08,09,10,11,12,1.0,1.0,1.0*30
$GPRMC,131728.260,A,5217.940,N,01225.601,E,038.8,094.5,120718,000.0,W*79
$GPGGA,131729.260,5217.938,N,01225.618,E,1,12,1.0,0.0,M,0.0,M,,*6D
$GPGSA,A,3,01,02,03,04,05,06,07,08,09,10,11,12,1.0,1.0,1.0*30
$GPRMC,131729.260,A,5217.938,N,01225.618,E,038.8,094.5,120718,000.0,W*7F
$GPGGA,131730.260,5217.937,N,01225.636,E,1,12,1.0,0.0,M,0.0,M,,*66
$GPGSA,A,3,01,02,03,04,05,06,07,08,09,10,11,12,1.0,1.0,1.0*30
$GPRMC,131730.260,A,5217.937,N,01225.636,E,038.8,094.5,120718,000.0,W*74
$GPGGA,131731.260,5217.935,N,01225.653,E,1,12,1.0,0.0,M,0.0,M,,*66
$GPGSA,A,3,01,02,03,04,05,06,07,08,09,10,11,12,1.0,1.0,1.0*30
$GPRMC,131731.260,A,5217.935,N,01225.653,E,038.8,094.5,120718,000.0,W*74
$GPGGA,131732.260,5217.934,N,01225.671,E,1,12,1.0,0.0,M,0.0,M,,*64
$GPGSA,A,3,01,02,03,04,05,06,07,08,09,10,11,12,1.0,1.0,1.0*30
$GPRMC,131732.260,A,5217.934,N,01225.671,E,038.8,094.5,120718,000.0,W*76
$GPGGA,131733.260,5217.933,N,01225.688,E,1,12,1.0,0.0,M,0.0,M,,*64
$GPGSA,A,3,01,02,03,04,05,06,07,08,09,10,11,12,1.0,1.0,1.0*30
$GPRMC,131733.260,A,5217.933,N,01225.688,E,038.8,094.5,120718,000.0,W*76
$GPGGA,131734.260,5217.931,N,01225.706,E,1,12,1.0,0.0,M,0.0,M,,*66
$GPGSA,A,3,01,02,03,04,05,06,07,08,09,10,11,12,1.0,1.0,1.0*30
$GPRMC,131734.260,A,5217.931,N,01225.706,E,038.8,094.5,120718,000.0,W*74
$GPGGA,131735.260,5217.930,N,01225.723,E,1,12,1.0,0.0,M,0.0,M,,*61
$GPGSA,A,3,01,02,03,04,05,06,07,08,09,10,11,12,1.0,1.0,1.0*30
$GPRMC,131735.260,A,5217.930,N,01225.723,E,038.8,094.5,120718,000.0,W*73
$GPGGA,131736.260,5217.929,N,01225.741,E,1,12,1.0,0.0,M,0.0,M,,*6E
$GPGSA,A,3,01,02,03,04,05,06,07,08,09,10,11,12,1.0,1.0,1.0*30
$GPRMC,131736.260,A,5217.929,N,01225.741,E,038.8,094.5,120718,000.0,W*7C
$GPGGA,131737.260,5217.927,N,01225.758,E,1,12,1.0,0.0,M,0.0,M,,*69
$GPGSA,A,3,01,02,03,04,05,06,07,08,09,10,11,12,1.0,1.0,1.0*30
$GPRMC,131737.260,A,5217.927,N,01225.758,E,038.8,094.5,120718,000.0,W*7B
$GPGGA,131738.260,5217.926,N,01225.776,E,1,12,1.0,0.0,M,0.0,M,,*6B
$GPGSA,A,3,01,02,03,04,05,06,07,08,09,10,11,12,1.0,1.0,1.0*30
$GPRMC,131738.260,A,5217.926,N,01225.776,E,038.8,094.5,120718,000.0,W*79
$GPGGA,131739.260,5217.924,N,01225.793,E,1,12,1.0,0.0,M,0.0,M,,*63
$GPGSA,A,3,01,02,03,04,05,06,07,08,09,10,11,12,1.0,1.0,1.0*30
$GPRMC,131739.260,A,5217.924,N,01225.793,E,038.8,094.5,120718,000.0,W*71
$GPGGA,131740.260,5217.923,N,01225.810,E,1,12,1.0,0.0,M,0.0,M,,*6E
$GPGSA,A,3,01,02,03,04,05,06,07,08,09,10,11,12,1.0,1.0,1.0*30
$GPRMC,131740.260,A,5217.923,N,01225.810,E,038.8,094.5,120718,000.0,W*7C
$GPGGA,131741.260,5217.922,N,01225.828,E,1,12,1.0,0.0,M,0.0,M,,*65
$GPGSA,A,3,01,02,03,04,05,06,07,08,09,10,11,12,1.0,1.0,1.0*30
$GPRMC,131741.260,A,5217.922,N,01225.828,E,038.8,094.5,120718,000.0,W*77
$GPGGA,131742.260,5217.920,N,01225.845,E,1,12,1.0,0.0,M,0.0,M,,*6F
$GPGSA,A,3,01,02,03,04,05,06,07,08,09,10,11,12,1.0,1.0,1.0*30
$GPRMC,131742.260,A,5217.920,N,01225.845,E,038.8,094.5,120718,000.0,W*7D
$GPGGA,131743.260,5217.919,N,01225.863,E,1,12,1.0,0.0,M,0.0,M,,*60
$GPGSA,A,3,01,02,03,04,05,06,07,08,09,10,11,12,1.0,1.0,1.0*30
$GPRMC,131743.260,A,5217.919,N,01225.863,E,038.8,094.5,120718,000.0,W*72
$GPGGA,131744.260,5217.918,N,01225.880,E,1,12,1.0,0.0,M,0.0,M,,*6B
$GPGSA,A,3,01,02,03,04,05,06,07,08,09,10,11,12,1.0,1.0,1.0*30
$GPRMC,131744.260,A,5217.918,N,01225.880,E,038.8,094.5,120718,000.0,W*79
$GPGGA,131745.260,5217.916,N,01225.898,E,1,12,1.0,0.0,M,0.0,M,,*6D
$GPGSA,A,3,01,02,03,04,05,06,07,08,09,10,11,12,1.0,1.0,1.0*30
$GPRMC,131745.260,A,5217.916,N,01225.898,E,038.8,094.5,120718,000.0,W*7F
$GPGGA,131746.260,5217.915,N,01225.915,E,1,12,1.0,0.0,M,0.0,M,,*69
$GPGSA,A,3,01,02,03,04,05,06,07,08,09,10,11,12,1.0,1.0,1.0*30
$GPRMC,131746.260,A,5217.915,N,01225.915,E,038.8,094.5,120718,000.0,W*7B
$GPGGA,131747.260,5217.914,N,01225.933,E,1,12,1.0,0.0,M,0.0,M,,*6D
$GPGSA,A,3,01,02,03,04,05,06,07,08,09,10,11,12,1.0,1.0,1.0*30
$GPRMC,131747.260,A,5217.914,N,01225.933,E,038.8,094.5,120718,000.0,W*7F
$GPGGA,131748.260,5217.912,N,01225.950,E,1,12,1.0,0.0,M,0.0,M,,*61
$GPGSA,A,3,01,02,03,04,05,06,07,08,09,10,11,12,1.0,1.0,1.0*30
$GPRMC,131748.260,A,5217.912,N,01225.950,E,038.8,094.5,120718,000.0,W*73
$GPGGA,131749.260,5217.911,N,01225.968,E,1,12,1.0,0.0,M,0.0,M,,*68
$GPGSA,A,3,01,02,03,04,05,06,07,08,09,10,11,12,1.0,1.0,1.0*30
$GPRMC,131749.260,A,5217.911,N,01225.968,E,038.8,094.5,120718,000.0,W*7A
$GPGGA,131750.260,5217.909,N,01225.985,E,1,12,1.0,0.0,M,0.0,M,,*6A
$GPGSA,A,3,01,02,03,04,05,06,07,08,09,10,11,12,1.0,1.0,1.0*30
$GPRMC,131750.260,A,5217.909,N,01225.985,E,038.8,094.5,120718,000.0,W*78
$GPGGA,131751.260,5217.908,N,01226.003,E,1,12,1.0,0.0,M,0.0,M,,*6E
$GPGSA,A,3,01,02,03,04,05,06,07,08,09,10,11,12,1.0,1.0,1.0*30
$GPRMC,131751.260,A,5217.908,N,01226.003,E,038.8,094.5,120718,000.0,W*7C
$GPGGA,131752.260,5217.907,N,01226.020,E,1,12,1.0,0.0,M,0.0,M,,*63
$GPGSA,A,3,01,02,03,04,05,06,07,08,09,10,11,12,1.0,1.0,1.0*30
$GPRMC,131752.260,A,5217.907,N,01226.020,E,038.8,094.5,120718,000.0,W*71
$GPGGA,131753.260,5217.905,N,01226.038,E,1,12,1.0,0.0,M,0.0,M,,*69
$GPGSA,A,3,01,02,03,04,05,06,07,08,09,10,11,12,1.0,1.0,1.0*30
$GPRMC,131753.260,A,5217.905,N,01226.038,E,038.8,094.5,120718,000.0,W*7B
$GPGGA,131754.260,5217.904,N,01226.055,E,1,12,1.0,0.0,M,0.0,M,,*64
$GPGSA,A,3,01,02,03,04,05,06,07,08,09,10,11,12,1.0,1.0,1.0*30
$GPRMC,131754.260,A,5217.904,N,01226.055,E,038.8,094.5,120718,000.0,W*76
$GPGGA,131755.260,5217.903,N,01226.073,E,1,12,1.0,0.0,M,0.0,M,,*66
$GPGSA,A,3,01,02,03,04,05,06,07,08,09,10,11,12,1.0,1.0,1.0*30
$GPRMC,131755.260,A,5217.903,N,01226.073,E,038.8,094.5,120718,000.0,W*74
$GPGGA,131756.260,5217.901,N,01226.090,E,1,12,1.0,0.0,M,0.0,M,,*6A
$GPGSA,A,3,01,02,03,04,05,06,07,08,09,10,11,12,1.0,1.0,1.0*30
$GPRMC,131756.260,A,5217.901,N,01226.090,E,038.8,094.5,120718,000.0,W*78
